Place ID,店舗名,住所,緯度,経度,評価,レビュー数,営業状況,営業時間,電話番号,ウェブサイト,価格帯,店舗タイプ,店舗説明,テイクアウト,デリバリー,店内飲食,朝食提供,昼食提供,夕食提供,地区,取得方法,更新日時
ChIJGSRiibZd818RZNmTr_4O8Yg,ma_ma,日本、〒952-0028 新潟県佐渡市加茂歌代７１６,38.0904423,138.4193421,4.5,13,営業中,月曜日: 定休日; 火曜日: 定休日; 水曜日: 定休日; 木曜日: 定休日; 金曜日: 定休日; 土曜日: 11時00分～16時00分; 日曜日: 11時00分～16時00分,0259-67-7673,https://www.ma-ma-2019.com/,価格情報なし,"パン・洋菓子店, 飲食店, 店舗, 観光スポット, 施設",パン・洋菓子店です。評価4.5（13件のレビュー）。テイクアウトに対応。佐渡島にあります。,可,不可,不可,不可,不可,不可,佐渡市内,CID URL検索,2025-08-09 12:33:43
ChIJvxJLFfRc818Rt820gWV7zXQ,ショッピングプラザ キング 両津店,日本、〒952-0011 新潟県佐渡市両津夷２７０−１,38.085713999999996,138.4339968,3.7,76,営業中,月曜日: 9時00分～19時00分; 火曜日: 9時00分～19時00分; 水曜日: 9時00分～19時00分; 木曜日: 9時00分～19時00分; 金曜日: 9時00分～19時00分; 土曜日: 9時00分～19時00分; 日曜日: 9時00分～19時00分,0259-23-3455,公式サイトなし,価格情報なし,"スーパーマーケット, 飲食店, 観光スポット, 店舗, 施設",スーパーマーケットです。評価3.7（76件のレビュー）。佐渡島にあります。,不可,不可,不可,不可,不可,不可,両津,CID URL検索,2025-08-09 12:33:44
ChIJPclDGfRc818R7OrZevTsw24,中沢仲助商店,日本、〒952-0011 新潟県佐渡市両津夷２９８,38.0854409,138.43293119999998,4.5,14,営業中,月曜日: 8時30分～18時00分; 火曜日: 8時30分～18時00分; 水曜日: 8時30分～18時00分; 木曜日: 8時30分～18時00分; 金曜日: 8時30分～18時00分; 土曜日: 8時30分～17時00分; 日曜日: 定休日,0259-27-2240,公式サイトなし,価格情報なし,"飲食店, 観光スポット, 施設",飲食店です。評価4.5（14件のレビュー）。佐渡島にあります。,不可,不可,不可,不可,不可,不可,両津,CID URL検索,2025-08-09 12:33:46
ChIJUcxGr_Zc818Rwc52Lit2j-A,田中餅店・菓子店,日本、〒952-0011 新潟県佐渡市両津夷２３６−１,38.0854122,138.4317634,4.6,30,営業中,月曜日: 9時00分～16時45分; 火曜日: 9時00分～16時45分; 水曜日: 9時00分～16時45分; 木曜日: 定休日; 金曜日: 9時00分～16時45分; 土曜日: 10時00分～16時00分; 日曜日: 10時00分～16時00分,0259-27-2395,公式サイトなし,価格情報なし,"観光スポット, 店舗, 飲食店, 施設",観光スポットです。評価4.6（30件のレビュー）。佐渡島にあります。,不可,不可,不可,不可,不可,不可,両津,CID URL検索,2025-08-09 12:33:47
ChIJZar-HvRc818R3X4c7BGalKk,ハーティウッズ,日本、〒952-0011 新潟県佐渡市両津夷３００,38.085296,138.432792,4.4,36,営業中,月曜日: 6時00分～19時00分; 火曜日: 6時00分～19時00分; 水曜日: 6時00分～19時00分; 木曜日: 6時00分～19時00分; 金曜日: 6時00分～19時00分; 土曜日: 6時00分～19時00分; 日曜日: 6時00分～19時00分,0259-23-2697,公式サイトなし,価格情報なし,"コンビニエンスストア, 店舗, 飲食店, 観光スポット, 施設",コンビニエンスストアです。評価4.4（36件のレビュー）。佐渡島にあります。,不可,不可,不可,不可,不可,不可,両津,CID URL検索,2025-08-09 12:33:49
ChIJk_shPFxd818Rs3zqqg9GKfM,CHERRY（チェリー）,日本、〒952-0011 新潟県佐渡市両津夷３０２ ナカスケビル,38.0850905,138.4323498,4.5,20,営業中,"月曜日: 11時00分～14時00分, 18時00分～23時00分; 火曜日: 11時00分～14時00分, 18時00分～23時00分; 水曜日: 定休日; 木曜日: 11時00分～14時00分, 18時00分～23時00分; 金曜日: 11時00分～14時00分, 18時00分～23時00分; 土曜日: 11時00分～14時00分, 18時00分～23時00分; 日曜日: 11時00分～14時00分, 18時00分～23時00分",0259-27-7220,https://www.facebook.com/%E3%83%8F%E3%83%B3%E3%83%89%E3%83%A1%E3%82%A4%E3%83%89-cherry-1564332350503809,価格情報なし,"バー, 観光スポット, 施設","バーです。評価4.5（20件のレビュー）。店内飲食, テイクアウトに対応。佐渡島にあります。",可,不可,可,不可,不可,不可,両津,CID URL検索,2025-08-09 12:33:50
ChIJXxFncPZc818RExokmLrz2UQ,大阪屋 両津店,日本、〒952-0011 新潟県佐渡市両津夷１１,38.0838289,138.4341021,4.3,39,営業中,月曜日: 8時30分～18時30分; 火曜日: 8時30分～18時30分; 水曜日: 8時30分～18時30分; 木曜日: 8時30分～18時30分; 金曜日: 8時30分～18時30分; 土曜日: 8時30分～18時30分; 日曜日: 8時30分～18時30分,0259-27-2423,https://www.niigata-osakaya.com/,普通,"店舗, 飲食店, 観光スポット, 施設",店舗です。評価4.3（39件のレビュー）。価格帯は普通です。佐渡島にあります。,不可,不可,不可,不可,不可,不可,両津,CID URL検索,2025-08-09 12:33:52
ChIJlx05UPZc818R5Qiqs8syi5w,はなしこう,日本、〒952-0011 新潟県佐渡市両津夷２６１−６３,38.083321999999995,138.432473,,,営業中,月曜日: 10時30分～18時00分; 火曜日: 10時30分～18時00分; 水曜日: 10時30分～18時00分; 木曜日: 10時30分～18時00分; 金曜日: 10時00分～18時30分; 土曜日: 10時30分～18時00分; 日曜日: 10時30分～18時00分,0259-27-3828,公式サイトなし,価格情報なし,"カフェ, 飲食店, 観光スポット, 施設",カフェです。店内飲食に対応。佐渡島にあります。,不可,不可,可,不可,不可,不可,両津,CID URL検索,2025-08-09 12:33:53
ChIJMcx9B1xd818RDjQROHV1NU8,佐渡アウトドアベース,日本、〒952-0011 新潟県佐渡市両津夷２７１−１,38.0833723,138.4355875,4.5,110,営業中,月曜日: 9時00分～18時00分; 火曜日: 定休日; 水曜日: 9時00分～18時00分; 木曜日: 9時00分～18時00分; 金曜日: 9時00分～18時00分; 土曜日: 9時00分～18時00分; 日曜日: 9時00分～18時00分,0259-58-8081,https://gotosado.com/outdoorbase/,価格情報なし,"カフェ, 飲食店, 観光スポット, 施設","カフェです。評価4.5（110件のレビュー）。店内飲食, テイクアウトに対応。佐渡島にあります。",可,不可,可,不可,可,可,両津,CID URL検索,2025-08-09 12:33:55
ChIJx2mWQfZc818RhXnKfiSZXGo,トロピカーナ,日本、〒952-0011 新潟県佐渡市両津夷２１１−９,38.0833092,138.4334864,4.5,8,営業中,月曜日: 10時00分～23時00分; 火曜日: 10時00分～23時00分; 水曜日: 10時00分～23時00分; 木曜日: 10時00分～23時00分; 金曜日: 10時00分～23時00分; 土曜日: 10時00分～23時00分; 日曜日: 定休日,0259-27-3586,http://fregate.jp/tropicana.html,価格情報なし,"カフェ, 観光スポット, 飲食店, 施設",カフェです。評価4.5（8件のレビュー）。店内飲食に対応。佐渡島にあります。,不可,不可,可,不可,可,不可,両津,CID URL検索,2025-08-09 12:33:56
ChIJjehXY_xc818RURSd44IajeU,ショッピングプラザ キング 佐渡サンモールタウン店,日本、〒952-0028 新潟県佐渡市加茂歌代４７８,38.0821192,138.4186833,3.7,189,営業中,月曜日: 9時00分～20時00分; 火曜日: 9時00分～20時00分; 水曜日: 9時00分～20時00分; 木曜日: 9時00分～20時00分; 金曜日: 9時00分～20時00分; 土曜日: 9時00分～20時00分; 日曜日: 9時00分～20時00分,0259-24-1831,公式サイトなし,価格情報なし,"スーパーマーケット, 飲食店, 観光スポット, 店舗, 施設",スーパーマーケットです。評価3.7（189件のレビュー）。佐渡島にあります。,不可,不可,不可,不可,不可,不可,佐渡市内,CID URL検索,2025-08-09 12:33:58
ChIJjehXY_xc818Rp6hMdKsIjWQ,あるこーいりす,日本、〒952-0028 新潟県佐渡市加茂歌代赤井下４７８,38.0820158,138.4185528,3.9,22,営業中,月曜日: 9時00分～17時00分; 火曜日: 9時00分～17時00分; 水曜日: 9時00分～17時00分; 木曜日: 定休日; 金曜日: 9時00分～17時00分; 土曜日: 9時00分～17時00分; 日曜日: 9時00分～17時00分,0259-23-5326,公式サイトなし,価格情報なし,"カフェ, 飲食店, 観光スポット, 施設","カフェです。評価3.9（22件のレビュー）。店内飲食, テイクアウトに対応。佐渡島にあります。",可,不可,可,可,可,不可,佐渡市内,CID URL検索,2025-08-09 12:34:00
ChIJq6o63lhc818RwKtVeHpj57E,maSanicoffee（マサニコーヒー）,日本、〒952-0014 新潟県佐渡市両津湊３５３−１ 両津南埠頭ビル 1階,38.0812484,138.4371519,4,213,営業中,月曜日: 6時30分～19時15分; 火曜日: 6時30分～19時15分; 水曜日: 6時30分～19時15分; 木曜日: 6時30分～19時15分; 金曜日: 6時30分～19時15分; 土曜日: 6時30分～19時15分; 日曜日: 6時30分～19時15分,070-4222-6448,https://instagram.com/masanicoffee_sado?igshid=MjljNjAzYmU=,価格情報なし,"カフェ, 飲食店, 観光スポット, 店舗, 施設","カフェです。評価4（213件のレビュー）。店内飲食, テイクアウトに対応。佐渡島にあります。",可,不可,可,可,可,不可,両津,CID URL検索,2025-08-09 12:34:01
ChIJ4Ta3sLJd818RuHmSmWscRR0,珈琲 花園,日本、〒952-0014 新潟県佐渡市両津湊３５３−２,38.0798694,138.4374688,3.5,4,営業中,,情報なし,公式サイトなし,価格情報なし,"カフェ, 飲食店, 観光スポット, 店舗, 施設",カフェです。評価3.5（4件のレビュー）。店内飲食に対応。佐渡島にあります。,不可,不可,可,不可,不可,不可,両津,CID URL検索,2025-08-09 12:34:02
ChIJTzoiYy9Z818R47ntfJndf3E,茶房 げんざ,日本、〒952-3541 新潟県佐渡市水津６０８,38.0752387,138.5698089,5,5,営業中,月曜日: 10時00分～17時00分; 火曜日: 10時00分～17時00分; 水曜日: 定休日; 木曜日: 定休日; 金曜日: 10時00分～17時00分; 土曜日: 10時00分～17時00分; 日曜日: 10時00分～17時00分,0259-29-2072,公式サイトなし,価格情報なし,"カフェ, 飲食店, 観光スポット, 施設",カフェです。評価5（5件のレビュー）。店内飲食に対応。佐渡島にあります。,不可,不可,可,不可,不可,不可,佐渡市内,CID URL検索,2025-08-09 12:34:04
ChIJGX0sKFRd818R5o6RkMzDh9A,かふぇすみよし,日本、〒952-0015 新潟県佐渡市住吉８４−１,38.0713408,138.4513874,4.1,36,営業中,月曜日: 9時30分～16時00分; 火曜日: 9時30分～16時00分; 水曜日: 9時30分～16時00分; 木曜日: 9時30分～16時00分; 金曜日: 9時30分～16時00分; 土曜日: 定休日; 日曜日: 定休日,0259-59-9005,https://www.facebook.com/share/1C8jHG5J9r/?mibextid=wwXIfr,普通,"カフェ, 観光スポット, 飲食店, 施設","カフェです。評価4.1（36件のレビュー）。価格帯は普通です。店内飲食, テイクアウトに対応。佐渡島にあります。",可,不可,可,不可,可,不可,佐渡市内,CID URL検索,2025-08-09 12:34:05
ChIJBVNL6eBd818RyVWCCPMeEIE,caMoco cafe 湖ASOBi,日本、〒952-0016 新潟県佐渡市原黒５５３−２８,38.070474499999996,138.4405989,4.1,87,営業中,"月曜日: 11時30分～16時00分, 18時00分～21時00分; 火曜日: 11時30分～16時00分, 18時00分～21時00分; 水曜日: 定休日; 木曜日: 定休日; 金曜日: 11時30分～16時00分, 18時00分～21時00分; 土曜日: 11時30分～16時00分, 18時00分～21時00分; 日曜日: 11時30分～16時00分, 18時00分～21時00分",0259-67-7467,https://www.hotpepper.jp/strJ003341121/,価格情報なし,"観光スポット, 施設",観光スポットです。評価4.1（87件のレビュー）。店内飲食に対応。佐渡島にあります。,不可,不可,可,不可,可,可,佐渡市内,CID URL検索,2025-08-09 12:34:07
ChIJaW-NDBNd818R2sHmErhiW3A,アートサロン和（やわらぎ）,日本、〒952-0026 新潟県佐渡市立野１４３,38.062766599999996,138.3923718,3.8,6,営業中,月曜日: 11時00分～16時00分; 火曜日: 11時00分～16時00分; 水曜日: 11時00分～16時00分; 木曜日: 11時00分～16時00分; 金曜日: 11時00分～16時00分; 土曜日: 定休日; 日曜日: 定休日,080-4057-8069,公式サイトなし,価格情報なし,"カフェ, 飲食店, 観光スポット, 施設",カフェです。評価3.8（6件のレビュー）。店内飲食に対応。佐渡島にあります。,不可,不可,可,不可,不可,不可,佐渡市内,CID URL検索,2025-08-09 12:34:08
ChIJicRDCc9J818Rer8SqpqyEZA,佐渡発酵 株式会社,日本、〒952-2203 新潟県佐渡市関６５０−１,38.2513049,138.4189717,4.7,34,営業中,月曜日: 8時30分～17時00分; 火曜日: 8時30分～17時00分; 水曜日: 8時30分～17時00分; 木曜日: 8時30分～17時00分; 金曜日: 8時30分～17時00分; 土曜日: 8時30分～17時00分; 日曜日: 8時30分～17時00分,0259-78-2288,https://sadohakko.com/,価格情報なし,"店舗, 観光スポット, 施設",店舗です。評価4.7（34件のレビュー）。佐渡島にあります。,不可,不可,不可,不可,不可,不可,佐渡市内,CID URL検索,2025-08-09 12:34:10
ChIJX07UVQZH818R02PLP3enDDQ,エーコープ 佐渡高千店,日本、〒952-2214 新潟県佐渡市高千７８８−２,38.1980815,138.3402592,4.1,38,営業中,月曜日: 9時00分～18時00分; 火曜日: 9時00分～18時00分; 水曜日: 9時00分～18時00分; 木曜日: 9時00分～18時00分; 金曜日: 9時00分～18時00分; 土曜日: 9時00分～18時00分; 日曜日: 9時00分～17時30分,0259-78-2557,https://www.ja-sado-niigata.or.jp/,価格情報なし,"スーパーマーケット, 店舗, 飲食店, 観光スポット, 施設",スーパーマーケットです。評価4.1（38件のレビュー）。佐渡島にあります。,不可,不可,不可,不可,不可,不可,佐渡市内,CID URL検索,2025-08-09 12:34:12
ChIJ2ccXHCdH818RyhF9NeodE6A,金子菓子店,日本、〒952-2215 新潟県佐渡市入川２０８７−７,38.185024999999996,138.32096389999998,4.3,9,営業中,月曜日: 7時00分～18時00分; 火曜日: 7時00分～18時00分; 水曜日: 7時00分～18時00分; 木曜日: 7時00分～18時00分; 金曜日: 7時00分～18時00分; 土曜日: 7時00分～18時00分; 日曜日: 7時00分～18時00分,0259-77-2026,公式サイトなし,価格情報なし,"飲食店, 店舗, 観光スポット, 施設",飲食店です。評価4.3（9件のレビュー）。テイクアウトに対応。佐渡島にあります。,可,不可,不可,不可,不可,不可,佐渡市内,CID URL検索,2025-08-09 12:34:13
ChIJwVgCPQBH818RbJowD-aJ9bs,高千カフェ,日本、〒952-2222 新潟県佐渡市北川内１０７７−３,38.1750544,138.3150112,4.6,14,営業中,"月曜日: 定休日; 火曜日: 8時00分～15時00分; 水曜日: 定休日; 木曜日: 11時00分～14時00分; 金曜日: 定休日; 土曜日: 8時00分～15時00分, 18時00分～21時00分; 日曜日: 定休日",080-5085-4468,https://www.instagram.com/takachicafe?igshid=OGQ5ZDc2ODk2ZA==,価格情報なし,"カフェ, 飲食店, 観光スポット, 施設",カフェです。評価4.6（14件のレビュー）。店内飲食に対応。佐渡島にあります。,不可,不可,可,不可,可,不可,佐渡市内,CID URL検索,2025-08-09 12:34:14
ChIJq6oeTPRl818R2aDkkiIGFR8,ガシマシネマ,日本、〒952-1522 新潟県佐渡市相川上京町１１,38.0352112,138.2451313,4.7,80,営業中,月曜日: 定休日; 火曜日: 定休日; 水曜日: 9時00分～17時00分; 木曜日: 9時00分～17時00分; 金曜日: 9時00分～17時00分; 土曜日: 9時00分～17時00分; 日曜日: 9時00分～17時00分,0259-67-7644,https://gashimacinema.info/,価格情報なし,"観光スポット, 施設",観光スポットです。評価4.7（80件のレビュー）。佐渡島にあります。,不可,不可,不可,不可,不可,不可,相川,CID URL検索,2025-08-09 12:34:16
ChIJ83sWZzFl818RkQmO7Efvo0s,cafe 丘の上の雲の向こう,日本、〒952-1522 新潟県佐渡市相川上京町１,38.0352202,138.2458441,3.7,3,営業中,月曜日: 定休日; 火曜日: 定休日; 水曜日: 定休日; 木曜日: 定休日; 金曜日: 定休日; 土曜日: 10時00分～17時00分; 日曜日: 10時00分～17時00分,090-3640-5173,https://www.instagram.com/okanouenokumonomukou/,価格情報なし,"カフェ, 観光スポット, 飲食店, 施設",カフェです。評価3.7（3件のレビュー）。店内飲食に対応。佐渡島にあります。,不可,不可,可,不可,不可,不可,相川,CID URL検索,2025-08-09 12:34:18
ChIJ7-0m4Ipl818RTDrUR5uPJYA,ショッピングプラザ キング 相川店,日本、〒952-1548 新潟県佐渡市相川羽田町４４,38.0334693,138.2401132,3.8,63,営業中,月曜日: 9時00分～19時00分; 火曜日: 9時00分～19時00分; 水曜日: 9時00分～19時00分; 木曜日: 9時00分～19時00分; 金曜日: 9時00分～19時00分; 土曜日: 9時00分～19時00分; 日曜日: 9時00分～19時00分,0259-74-4321,公式サイトなし,価格情報なし,"スーパーマーケット, 飲食店, 店舗, 観光スポット, 施設",スーパーマーケットです。評価3.8（63件のレビュー）。佐渡島にあります。,不可,不可,不可,不可,不可,不可,相川,CID URL検索,2025-08-09 12:34:19
ChIJ-avgaYtl818Rlq5NACfYOpw,珈琲の家 カフェ・ド・カトレア,日本、〒952-1548 新潟県佐渡市相川羽田町６７,38.0325054,138.2416625,3.9,72,営業中,月曜日: 8時30分～21時00分; 火曜日: 8時30分～21時00分; 水曜日: 8時30分～21時00分; 木曜日: 8時30分～21時00分; 金曜日: 8時30分～21時00分; 土曜日: 8時30分～21時00分; 日曜日: 8時30分～21時00分,0259-74-3348,https://www.instagram.com/cafedecattleya/,普通,"カフェ, 店舗, 飲食店, 観光スポット, 施設",カフェです。評価3.9（72件のレビュー）。価格帯は普通です。店内飲食に対応。佐渡島にあります。,不可,不可,可,可,可,不可,相川,CID URL検索,2025-08-09 12:34:21
ChIJBaxQ1oRl818RgDdcOrmOUK8,コロンビア,日本、〒952-1582 新潟県佐渡市相川下戸村４３６,38.0247074,138.23516379999998,3.6,19,営業中,"月曜日: 11時30分～14時00分, 18時00分～23時00分; 火曜日: 11時30分～14時00分, 18時00分～23時00分; 水曜日: 定休日; 木曜日: 11時30分～14時00分, 18時00分～23時00分; 金曜日: 11時30分～14時00分, 18時00分～23時00分; 土曜日: 11時30分～14時00分, 18時00分～23時00分; 日曜日: 11時30分～14時00分, 18時00分～23時00分",0259-74-4151,公式サイトなし,価格情報なし,"カフェ, 飲食店, 観光スポット, 施設",カフェです。評価3.6（19件のレビュー）。店内飲食に対応。佐渡島にあります。,不可,不可,可,不可,可,不可,相川,CID URL検索,2025-08-09 12:34:22
ChIJrQd44Apn818RqT6MHmwq2qw,こども服 oto／Mr.Tono café,日本、〒952-1206 新潟県佐渡市大和１３１６−１,38.0384077,138.3878312,4.8,30,営業中,月曜日: 10時00分～18時00分; 火曜日: 10時00分～18時00分; 水曜日: 定休日; 木曜日: 10時00分～18時00分; 金曜日: 10時00分～18時00分; 土曜日: 10時00分～18時00分; 日曜日: 10時00分～18時00分,0259-58-9044,https://oto-101.square.site/,手頃,"カフェ, 衣料品店, 店舗, 飲食店, 観光スポット, 施設","カフェです。評価4.8（30件のレビュー）。価格帯は手頃です。店内飲食, テイクアウトに対応。佐渡島にあります。",可,不可,可,不可,可,不可,佐渡市内,CID URL検索,2025-08-09 12:34:24
ChIJNVKbtstm818RJuOIt2WPQHw,ローソン 佐渡中興店,日本、〒952-1211 新潟県佐渡市中興甲１１０６ 甲１１０６－８ ８,38.0145561,138.3558658,2.8,25,営業中,月曜日: 24 時間営業; 火曜日: 24 時間営業; 水曜日: 24 時間営業; 木曜日: 24 時間営業; 金曜日: 24 時間営業; 土曜日: 24 時間営業; 日曜日: 24 時間営業,0259-63-5165,https://www.e-map.ne.jp/p/lawson/dtl/294645/,価格情報なし,"コンビニエンスストア, ATM, 店舗, 飲食店, 観光スポット, 施設",コンビニエンスストアです。評価2.8（25件のレビュー）。佐渡島にあります。,不可,不可,不可,不可,不可,不可,佐渡市内,CID URL検索,2025-08-09 12:34:25
ChIJ5VUTzfpn818R4iDSqVzApOE,森のコーヒー屋,日本、〒952-1301 新潟県佐渡市真光寺１１２２,38.0396084,138.3166014,4.3,7,一時休業,,情報なし,https://morinocoffeeya.wixsite.com/close-up-html-jp,価格情報なし,"カフェ, 観光スポット, 飲食店, 施設",カフェです。評価4.3（7件のレビュー）。店内飲食に対応。佐渡島にあります。,不可,不可,可,不可,不可,不可,佐渡市内,CID URL検索,2025-08-09 12:34:27
ChIJMzvLKABn818Rib7AMul81sM,二宮萬友荘 ばんゆうそう,日本、〒952-1308 新潟県佐渡市二宮６５５,38.0257612,138.3151609,4.5,8,営業中,,0259-52-4380,公式サイトなし,価格情報なし,"カフェ, 観光スポット, 飲食店, 施設",カフェです。評価4.5（8件のレビュー）。店内飲食に対応。佐渡島にあります。,不可,不可,可,不可,可,不可,佐渡市内,CID URL検索,2025-08-09 12:34:28
ChIJVeQEzgln818RMnrNejAm4nE,ドッグツアーズtarokich（ドッグラン＆カフェ）,日本、〒952-1304 新潟県佐渡市下長木４０２,38.008946,138.336456,4.4,9,営業中,月曜日: 11時30分～17時00分; 火曜日: 11時30分～17時00分; 水曜日: 11時30分～17時00分; 木曜日: 11時30分～17時00分; 金曜日: 11時30分～17時00分; 土曜日: 11時30分～17時00分; 日曜日: 11時30分～17時00分,090-2470-6492,https://dogrun-uzuz.com/dogruns/1887,価格情報なし,"公園, 観光スポット, 施設",公園です。評価4.4（9件のレビュー）。佐渡島にあります。,不可,不可,不可,不可,不可,不可,佐渡市内,CID URL検索,2025-08-09 12:34:30
ChIJpQfvxAdl818RntPs4vRM-E4,韓国家庭料理アリラン,日本、〒952-1432 新潟県佐渡市沢根五十里９４５−１,38.008068,138.2880734,4.2,24,閉店,,0259-52-3300,公式サイトなし,価格情報なし,"レストラン, 飲食店, 観光スポット, 施設","レストランです。評価4.2（24件のレビュー）。店内飲食, テイクアウトに対応。佐渡島にあります。",可,不可,可,不可,可,可,佐渡市内,CID URL検索,2025-08-09 12:34:31
ChIJfbI4XgBl818Rs-nln_NCiGQ,御菓子処しまや,日本、〒952-1432 新潟県佐渡市沢根五十里９８９−１,38.0076377,138.28550289999998,3,2,営業中,,情報なし,公式サイトなし,価格情報なし,"観光スポット, 店舗, 飲食店, 施設",観光スポットです。評価3（2件のレビュー）。佐渡島にあります。,不可,不可,不可,不可,不可,不可,佐渡市内,CID URL検索,2025-08-09 12:34:33
ChIJyRpm3Klm818RlB8F_CCCLb0,ケーキハウスバニラ,日本、〒952-1306 新潟県佐渡市長木９６０−７,38.0059731,138.3301342,4.2,65,営業中,月曜日: 定休日; 火曜日: 定休日; 水曜日: 10時00分～18時00分; 木曜日: 10時00分～18時00分; 金曜日: 10時00分～18時00分; 土曜日: 10時00分～18時00分; 日曜日: 10時00分～18時00分,0259-52-0741,https://www.cakehousevanilla.com/,普通,"パン・洋菓子店, 飲食店, 観光スポット, 店舗, 施設",パン・洋菓子店です。評価4.2（65件のレビュー）。価格帯は普通です。テイクアウトに対応。佐渡島にあります。,可,不可,不可,不可,不可,不可,佐渡市内,CID URL検索,2025-08-09 12:34:35
ChIJt9DSyfhl818R0VBSnbXbgRg,池田菓子舗,日本、〒952-1433 新潟県佐渡市沢根篭町３５,38.0056796,138.278851,4.4,41,営業中,月曜日: 8時00分～18時00分; 火曜日: 8時00分～18時00分; 水曜日: 定休日; 木曜日: 8時00分～18時00分; 金曜日: 8時00分～18時00分; 土曜日: 8時00分～18時00分; 日曜日: 8時00分～18時00分,0259-52-6643,公式サイトなし,価格情報なし,"飲食店, 観光スポット, 店舗, 施設",飲食店です。評価4.4（41件のレビュー）。佐渡島にあります。,不可,不可,不可,不可,不可,不可,佐渡市内,CID URL検索,2025-08-09 12:34:36
ChIJYxniB6pm818RaAx1Odh6oLY,ショッピングプラザ キング 東大通店,日本、〒952-1307 新潟県佐渡市東大通８２５,38.004858399999996,138.3316667,3.4,194,営業中,月曜日: 9時00分～20時00分; 火曜日: 9時00分～20時00分; 水曜日: 9時00分～20時00分; 木曜日: 9時00分～20時00分; 金曜日: 9時00分～20時00分; 土曜日: 9時00分～20時00分; 日曜日: 9時00分～20時00分,0259-51-1211,https://ptl.zchain.co.jp/store/8424,価格情報なし,"スーパーマーケット, 観光スポット, 店舗, 飲食店, 施設",スーパーマーケットです。評価3.4（194件のレビュー）。佐渡島にあります。,不可,不可,不可,不可,不可,不可,佐渡市内,CID URL検索,2025-08-09 12:34:38
ChIJKSfFBgBl818RZDhxk4EkRrE,喫茶デイリー,日本、〒952-1315 新潟県佐渡市河原田諏訪町７７,38.003773599999995,138.3142092,2.8,6,営業中,,情報なし,公式サイトなし,価格情報なし,"カフェ, 飲食店, 店舗, 観光スポット, 施設",カフェです。評価2.8（6件のレビュー）。店内飲食に対応。佐渡島にあります。,不可,不可,可,不可,可,不可,佐渡市内,CID URL検索,2025-08-09 12:34:39
ChIJPdMgswFk818Rqnk-I3ziAWI,喜昇堂パン工房・ピュイダムール,日本、〒952-1311 新潟県佐渡市八幡１１５６,38.0032055,138.33212129999998,4.2,36,営業中,月曜日: 8時00分～18時00分; 火曜日: 8時00分～18時00分; 水曜日: 定休日; 木曜日: 8時00分～18時00分; 金曜日: 8時00分～18時00分; 土曜日: 8時00分～18時00分; 日曜日: 8時00分～18時00分,0259-52-4516,公式サイトなし,普通,"パン・洋菓子店, 飲食店, 観光スポット, 店舗, 施設",パン・洋菓子店です。評価4.2（36件のレビュー）。価格帯は普通です。テイクアウトに対応。佐渡島にあります。,可,不可,不可,不可,不可,不可,佐渡市内,CID URL検索,2025-08-09 12:34:41
ChIJP5NoywVk818RSmlEe3MxavM,モンブラン,日本、〒952-1314 新潟県佐渡市河原田本町５３−１,38.002232,138.32244219999998,4.1,31,営業中,月曜日: 10時00分～19時00分; 火曜日: 10時00分～19時00分; 水曜日: 10時00分～19時00分; 木曜日: 10時00分～19時00分; 金曜日: 10時00分～19時00分; 土曜日: 10時00分～19時00分; 日曜日: 定休日,0259-52-3235,公式サイトなし,普通,"パン・洋菓子店, 店舗, 飲食店, 観光スポット, 施設",パン・洋菓子店です。評価4.1（31件のレビュー）。価格帯は普通です。テイクアウトに対応。佐渡島にあります。,可,不可,不可,不可,不可,不可,佐渡市内,CID URL検索,2025-08-09 12:34:42
ChIJvc9_GBBk818RKWqYStAdN-Y,アンブレラ,日本、〒952-1315 新潟県佐渡市河原田諏訪町１７０−３,38.0015837,138.3163271,3.5,24,営業中,月曜日: 9時00分～21時00分; 火曜日: 9時00分～21時00分; 水曜日: 定休日; 木曜日: 9時00分～21時00分; 金曜日: 9時00分～21時00分; 土曜日: 9時00分～21時00分; 日曜日: 9時00分～21時00分,0259-52-3725,公式サイトなし,普通,"カフェ, 飲食店, 観光スポット, 施設",カフェです。評価3.5（24件のレビュー）。価格帯は普通です。店内飲食に対応。佐渡島にあります。,不可,不可,可,可,可,不可,佐渡市内,CID URL検索,2025-08-09 12:34:44
ChIJLyWbCQZk818RKXBYeZfUogA,ラブマーケットカフェ,日本、〒952-1314 新潟県佐渡市河原田本町９６−１,38.0010676,138.3218336,4.7,3,営業中,月曜日: 定休日; 火曜日: 定休日; 水曜日: 定休日; 木曜日: 定休日; 金曜日: 11時30分～17時30分; 土曜日: 11時30分～17時30分; 日曜日: 定休日,0259-57-2393,https://ja-jp.facebook.com/Lovemarketcafe/,価格情報なし,"カフェ, 飲食店, 店舗, 観光スポット, 施設","カフェです。評価4.7（3件のレビュー）。店内飲食, テイクアウトに対応。佐渡島にあります。",可,不可,可,不可,不可,不可,佐渡市内,CID URL検索,2025-08-09 12:34:45
ChIJ9W33Dg9k818RN6qd4lq-MII,コーヒーハウスらるご,日本、〒952-1315 新潟県佐渡市河原田諏訪町２０８−７６,38.0009736,138.3171714,4.6,77,営業中,月曜日: 8時30分～19時00分; 火曜日: 定休日; 水曜日: 8時30分～19時00分; 木曜日: 8時30分～19時00分; 金曜日: 8時30分～19時00分; 土曜日: 8時30分～19時00分; 日曜日: 8時30分～19時00分,0259-57-2066,https://www.visitsado.com/spot/detail0929/,価格情報なし,"カフェ, 観光スポット, 店舗, 飲食店, 施設",カフェです。評価4.6（77件のレビュー）。店内飲食に対応。佐渡島にあります。,不可,不可,可,可,可,不可,佐渡市内,CID URL検索,2025-08-09 12:34:47
ChIJ_eSNCOpl818Rk7dhSgyIom8,MERROWS SADO（メローズ サド）,日本、〒952-1314 新潟県佐渡市河原田本町１９３,38.0004558,138.3209214,4,55,営業中,月曜日: 10時00分～19時00分; 火曜日: 10時00分～19時00分; 水曜日: 定休日; 木曜日: 定休日; 金曜日: 10時00分～19時00分; 土曜日: 7時30分～19時00分; 日曜日: 7時30分～19時00分,0259-67-7106,https://instagram.com/merrows__sado?igshid=MzRlODBiNWFlZA==,価格情報なし,"カフェ, 観光スポット, 飲食店, 施設","カフェです。評価4（55件のレビュー）。店内飲食, テイクアウトに対応。佐渡島にあります。",可,不可,可,可,可,不可,佐渡市内,CID URL検索,2025-08-09 12:34:48
ChIJHSB7trZl818R7CxvFtq41bc,へにゃもにゃ,日本、〒952-1314 新潟県佐渡市河原田本町１３０−２,37.9998637,138.3240026,4,4,営業中,月曜日: 20時00分～4時00分; 火曜日: 20時00分～4時00分; 水曜日: 20時00分～4時00分; 木曜日: 20時00分～4時00分; 金曜日: 20時00分～4時00分; 土曜日: 20時00分～4時00分; 日曜日: 20時00分～4時00分,情報なし,公式サイトなし,価格情報なし,"バー, 観光スポット, 施設",バーです。評価4（4件のレビュー）。店内飲食に対応。佐渡島にあります。,不可,不可,可,不可,不可,不可,佐渡市内,CID URL検索,2025-08-09 12:34:50
ChIJQX54MQBe818RAjGXne8tn0I,トキのもり売店,日本、〒952-0101 新潟県佐渡市新穂長畝３８３−２,38.0371856,138.4208404,4.1,17,営業中,月曜日: 8時30分～17時00分; 火曜日: 8時30分～17時00分; 水曜日: 8時30分～17時00分; 木曜日: 8時30分～17時00分; 金曜日: 8時30分～17時00分; 土曜日: 8時30分～17時00分; 日曜日: 8時30分～17時00分,0259-22-3550,http://tokinotayori.com/tokipark/,価格情報なし,"店舗, 観光スポット, 施設",店舗です。評価4.1（17件のレビュー）。佐渡島にあります。,不可,不可,不可,不可,不可,不可,新穂,CID URL検索,2025-08-09 12:34:51
ChIJ0ztRluNf818Ru3svHVDZpNg,トキのむらフード,日本、〒952-0101 新潟県佐渡市新穂長畝３８３−２,38.0371582,138.4207861,3.5,14,営業中,月曜日: 8時00分～17時00分; 火曜日: 8時00分～17時00分; 水曜日: 8時00分～17時00分; 木曜日: 8時00分～17時00分; 金曜日: 8時00分～17時00分; 土曜日: 8時00分～17時00分; 日曜日: 8時00分～17時00分,0259-22-3023,公式サイトなし,価格情報なし,"アイスクリーム店, 店舗, 飲食店, 観光スポット, 施設",アイスクリーム店です。評価3.5（14件のレビュー）。テイクアウトに対応。佐渡島にあります。,可,不可,不可,不可,不可,不可,新穂,CID URL検索,2025-08-09 12:34:53
ChIJZwXBgbFh818RSscOGOw4egs,新穂青木おやつ店,日本、〒952-0102 新潟県佐渡市新穂青木１１２２−３,38.0217575,138.43438759999998,4.4,21,営業中,月曜日: 定休日; 火曜日: 定休日; 水曜日: 定休日; 木曜日: 定休日; 金曜日: 11時00分～15時00分; 土曜日: 10時00分～16時00分; 日曜日: 10時00分～16時00分,情報なし,https://ja-jp.facebook.com/niibo.aoki.oyatsuten/,価格情報なし,"店舗, 飲食店, 観光スポット, 施設",店舗です。評価4.4（21件のレビュー）。佐渡島にあります。,不可,不可,不可,不可,不可,不可,新穂,CID URL検索,2025-08-09 12:34:54
ChIJFfKmMvxg818R_4kosG_KyTA,島の駅 佐渡特選,日本、〒952-0109 新潟県佐渡市新穂大野１６５０−２,38.003468399999996,138.412025,3.7,16,営業中,月曜日: 定休日; 火曜日: 9時00分～14時30分; 水曜日: 定休日; 木曜日: 9時00分～14時30分; 金曜日: 9時00分～14時30分; 土曜日: 9時00分～14時30分; 日曜日: 定休日,0259-22-2925,公式サイトなし,価格情報なし,"スーパーマーケット, 店舗, 飲食店, 観光スポット, 施設",スーパーマーケットです。評価3.7（16件のレビュー）。佐渡島にあります。,不可,不可,不可,不可,不可,不可,新穂,CID URL検索,2025-08-09 12:34:56
ChIJx8blbDtj818RMrvDo0c33fU,詩茶香愛茶華（しっちゃかめっちゃか）,日本、〒952-0312 新潟県佐渡市吉岡１６９７−１０,37.9698797,138.34713059999999,4.4,24,営業中,,情報なし,https://instagram.com/shitchaka_metchaka?igshid=NTc4MTIwNjQ2YQ==,価格情報なし,"パン・洋菓子店, 店舗, 飲食店, 観光スポット, 施設",パン・洋菓子店です。評価4.4（24件のレビュー）。テイクアウトに対応。佐渡島にあります。,可,不可,不可,不可,不可,不可,佐渡市内,CID URL検索,2025-08-09 12:34:57
ChIJpVBmi0xi818Rgf7GTx4tbjQ,ガレージカフェ レンスポルト,日本、〒952-0312 新潟県佐渡市吉岡９３１−１３,37.969077999999996,138.349034,4.3,26,営業中,月曜日: 定休日; 火曜日: 定休日; 水曜日: 11時30分～17時00分; 木曜日: 11時30分～17時00分; 金曜日: 11時30分～17時00分; 土曜日: 11時30分～17時00分; 日曜日: 11時30分～17時00分,0259-55-1055,http://blog.livedoor.jp/mukka_mukka-rennsport/,普通,"カフェ, 店舗, 飲食店, 観光スポット, 施設",カフェです。評価4.3（26件のレビュー）。価格帯は普通です。店内飲食に対応。佐渡島にあります。,不可,不可,可,不可,可,不可,佐渡市内,CID URL検索,2025-08-09 12:34:59
ChIJ__-DHU1i818RCN4BanKU7uM,くりくりや,日本、〒952-0312 新潟県佐渡市吉岡１７００−４,37.9687434,138.347129,4.6,13,営業中,月曜日: 9時00分～16時00分; 火曜日: 9時00分～16時00分; 水曜日: 9時00分～16時00分; 木曜日: 9時00分～16時00分; 金曜日: 9時00分～16時00分; 土曜日: 9時00分～16時00分; 日曜日: 9時00分～16時00分,0259-55-2670,公式サイトなし,価格情報なし,"店舗, 飲食店, 観光スポット, 施設",店舗です。評価4.6（13件のレビュー）。佐渡島にあります。,不可,不可,不可,不可,不可,不可,佐渡市内,CID URL検索,2025-08-09 12:35:00
ChIJJdR8ELxj818RrlvPsMvhiS8,わたぼうし,日本、〒952-0318 新潟県佐渡市真野新町４８８−１,37.965905899999996,138.3459971,4.7,17,営業中,月曜日: 10時00分～17時00分; 火曜日: 10時00分～17時00分; 水曜日: 10時00分～17時00分; 木曜日: 10時00分～17時00分; 金曜日: 10時00分～17時00分; 土曜日: 10時00分～17時00分; 日曜日: 10時00分～17時00分,0259-55-1033,公式サイトなし,価格情報なし,"店舗, 飲食店, 観光スポット, 施設",店舗です。評価4.7（17件のレビュー）。佐渡島にあります。,不可,不可,不可,不可,不可,不可,真野,CID URL検索,2025-08-09 12:35:02
ChIJuT6pkIpi818RZS4aqPtsr4Y,(有)真野観光センター,日本、〒952-0313 新潟県佐渡市真野４４８,37.9528028,138.3526707,4.3,11,営業中,月曜日: 9時00分～16時30分; 火曜日: 9時00分～16時30分; 水曜日: 9時00分～16時30分; 木曜日: 9時00分～16時30分; 金曜日: 9時00分～16時30分; 土曜日: 9時00分～16時30分; 日曜日: 9時00分～16時30分,0259-55-3333,https://www.at-ml.jp/71084/,価格情報なし,"店舗, 観光スポット, 施設",店舗です。評価4.3（11件のレビュー）。佐渡島にあります。,不可,不可,不可,不可,不可,不可,真野,CID URL検索,2025-08-09 12:35:03
ChIJf07RV2Bj818R3H_ZVj7fUTA,Crescentmoon/KITCHENしろ,日本、〒952-0317 新潟県佐渡市豊田６５５,37.9523422,138.3373597,4.3,4,営業中,,情報なし,https://www.instagram.com/crescentmoon.1998,価格情報なし,"店舗, 飲食店, 観光スポット, 施設",店舗です。評価4.3（4件のレビュー）。佐渡島にあります。,不可,不可,不可,不可,不可,不可,佐渡市内,CID URL検索,2025-08-09 12:35:05
ChIJT1bHzzGD9F8RTTAbXBQ32NE,学校蔵Cafe,日本、〒952-0434 新潟県佐渡市西三川１８７１,37.8992669,138.28999249999998,4.7,48,営業中,月曜日: 定休日; 火曜日: 定休日; 水曜日: 定休日; 木曜日: 定休日; 金曜日: 10時00分～16時00分; 土曜日: 10時00分～16時00分; 日曜日: 10時00分～16時00分,090-4327-3614,https://www.obata-shuzo.com/home/gakkogura/cafe.asp,価格情報なし,"カフェ, 飲食店, 観光スポット, 施設",カフェです。評価4.7（48件のレビュー）。店内飲食に対応。佐渡島にあります。,不可,不可,可,不可,可,不可,佐渡市内,CID URL検索,2025-08-09 12:35:06
ChIJ0axZxPph818RrDBshhUgaTk,馬川亭 ものづくりの拠点,日本、〒952-0202 新潟県佐渡市栗野江１８１４−１,37.9989041,138.40639769999999,4.8,18,営業中,月曜日: 10時00分～18時00分; 火曜日: 10時00分～18時00分; 水曜日: 定休日; 木曜日: 定休日; 金曜日: 10時00分～18時00分; 土曜日: 10時00分～18時00分; 日曜日: 10時00分～18時00分,080-5181-0333,https://umakawatei.com/,価格情報なし,"カフェ, 飲食店, 観光スポット, 店舗, 施設","カフェです。評価4.8（18件のレビュー）。店内飲食, テイクアウトに対応。佐渡島にあります。",可,不可,可,不可,可,可,佐渡市内,CID URL検索,2025-08-09 12:35:08
ChIJ-9TybwBh818RhQ9R6e4ON0I,Comolaine コモレーヌ,日本、〒952-0206 新潟県佐渡市畑野甲607-1,37.9879847,138.3944393,4.8,10,営業中,月曜日: 11時00分～16時00分; 火曜日: 11時00分～16時00分; 水曜日: 定休日; 木曜日: 定休日; 金曜日: 11時00分～16時00分; 土曜日: 11時00分～16時00分; 日曜日: 11時00分～16時00分,情報なし,https://www.instagram.com/comolaine_sado?igsh=bmtoZzMwdGZiZjh0,価格情報なし,"パン・洋菓子店, 店舗, 飲食店, 観光スポット, 施設",パン・洋菓子店です。評価4.8（10件のレビュー）。テイクアウトに対応。佐渡島にあります。,可,不可,不可,不可,不可,不可,畑野,CID URL検索,2025-08-09 12:35:09
ChIJXeoAcwBh818RpKS_6cmdDvA,犬と暮らす小さなカフェ,日本、〒952-0216 新潟県佐渡市三宮２５,37.982532,138.37505339999998,4.7,18,営業中,月曜日: 10時00分～17時00分; 火曜日: 10時00分～17時00分; 水曜日: 10時00分～17時00分; 木曜日: 10時00分～17時00分; 金曜日: 10時00分～17時00分; 土曜日: 10時00分～17時00分; 日曜日: 10時00分～17時00分,090-7837-9688,公式サイトなし,価格情報なし,"アイスクリーム店, 飲食店, 観光スポット, 店舗, 施設",アイスクリーム店です。評価4.7（18件のレビュー）。テイクアウトに対応。佐渡島にあります。,可,不可,不可,不可,不可,不可,佐渡市内,CID URL検索,2025-08-09 12:35:11
ChIJI1fQ8Cpi818RAw1-7h1n7qQ,さっこりＨＯＵＳＥ三の宮,日本、〒952-0216 新潟県佐渡市三宮５６８−４,37.9798928,138.3741187,2,2,一時休業,,0259-66-3871,公式サイトなし,価格情報なし,"カフェ, 飲食店, 観光スポット, 施設",カフェです。評価2（2件のレビュー）。店内飲食に対応。佐渡島にあります。,不可,不可,可,不可,不可,不可,佐渡市内,CID URL検索,2025-08-09 12:35:12
ChIJy4HJN1OB9F8RtozsTR-NHew,ＪＡ佐渡 Ａコープ羽茂店,日本、〒952-0504 新潟県佐渡市羽茂本郷５０４−３,37.846379299999995,138.316645,3.6,87,営業中,月曜日: 9時00分～19時30分; 火曜日: 9時00分～19時30分; 水曜日: 9時00分～19時30分; 木曜日: 9時00分～19時30分; 金曜日: 9時00分～19時30分; 土曜日: 9時00分～19時30分; 日曜日: 9時00分～19時30分,0259-88-2610,https://www.ja-sado-niigata.or.jp/index.html,価格情報なし,"スーパーマーケット, 店舗, 飲食店, 観光スポット, 施設",スーパーマーケットです。評価3.6（87件のレビュー）。佐渡島にあります。,不可,不可,不可,不可,不可,不可,羽茂,CID URL検索,2025-08-09 12:35:14
ChIJGUhsRDuH9F8RWrwA1royUKI,スーパー たんぽぽ,日本、〒952-0604 新潟県佐渡市小木町２０４８,37.8191701,138.285463,3.4,105,営業中,月曜日: 8時30分～19時00分; 火曜日: 8時30分～19時00分; 水曜日: 8時30分～19時00分; 木曜日: 8時30分～19時00分; 金曜日: 8時30分～19時00分; 土曜日: 8時30分～19時00分; 日曜日: 8時30分～19時00分,0259-86-3940,https://ptl.zchain.co.jp/store/5687?store_group_id=1,価格情報なし,"スーパーマーケット, 店舗, 飲食店, 観光スポット, 施設",スーパーマーケットです。評価3.4（105件のレビュー）。佐渡島にあります。,不可,不可,不可,不可,不可,不可,小木,CID URL検索,2025-08-09 12:35:15
ChIJCZQ9rDmH9F8R9qL5-JA7OCs,高津屋庄平,日本、〒952-0604 新潟県佐渡市小木町６９９−１,37.8173913,138.27704749999998,4.6,12,営業中,月曜日: 11時00分～16時00分; 火曜日: 定休日; 水曜日: 定休日; 木曜日: 定休日; 金曜日: 11時00分～16時00分; 土曜日: 11時00分～16時00分; 日曜日: 11時00分～16時00分,情報なし,https://www.instagram.com/sado_shobei?igsh=dnRkbzE5MjFwcTl6,価格情報なし,"カフェ, 飲食店, 観光スポット, 施設",カフェです。評価4.6（12件のレビュー）。店内飲食に対応。佐渡島にあります。,不可,不可,可,不可,可,不可,小木,CID URL検索,2025-08-09 12:35:17
ChIJtdhlkSOH9F8R08w5Hii8xDA,喜八屋ゴローカフェ,日本、〒952-0604 新潟県佐渡市小木町５６−１,37.816325,138.27963259999999,4.5,33,営業中,月曜日: 定休日; 火曜日: 定休日; 水曜日: 10時30分～17時00分; 木曜日: 10時30分～17時00分; 金曜日: 10時30分～17時00分; 土曜日: 10時30分～17時00分; 日曜日: 10時30分～17時00分,090-1031-7835,公式サイトなし,価格情報なし,"カフェ, 飲食店, 観光スポット, 施設","カフェです。評価4.5（33件のレビュー）。店内飲食, テイクアウトに対応。佐渡島にあります。",可,不可,可,不可,不可,不可,小木,CID URL検索,2025-08-09 12:35:18
ChIJLTa1LwKH9F8RnD8uQgbjvXY,Kaffa 佐渡（カファ さど）,日本、〒952-0605 新潟県佐渡市小木町１９３５−１７,37.8161086,138.2805046,4.7,33,営業中,月曜日: 9時00分～18時00分; 火曜日: 9時00分～18時00分; 水曜日: 9時00分～18時00分; 木曜日: 9時00分～18時00分; 金曜日: 9時00分～18時00分; 土曜日: 9時00分～18時00分; 日曜日: 9時00分～18時00分,080-3573-7586,https://kaffa.net/domain/,価格情報なし,"カフェ, 店舗, 飲食店, 観光スポット, 施設","カフェです。評価4.7（33件のレビュー）。店内飲食, テイクアウトに対応。佐渡島にあります。",可,不可,可,不可,不可,不可,小木,CID URL検索,2025-08-09 12:35:20
ChIJV4db2jiH9F8R9yHw68gX_LM,カフェ日和山・南書店,日本、〒952-0604 新潟県佐渡市小木町２３２,37.816061700000006,138.2784886,4.4,115,営業中,,0259-86-3550,公式サイトなし,普通,"カフェ, 観光スポット, 店舗, 飲食店, 施設",カフェです。評価4.4（115件のレビュー）。価格帯は普通です。店内飲食に対応。佐渡島にあります。,不可,不可,可,不可,可,不可,小木,CID URL検索,2025-08-09 12:35:21
ChIJ21elLD-H9F8R2T1IIIQxeUY,山本屋みやげ店（みやげ店のみ営業）,日本、〒952-0604 新潟県佐渡市小木町６３−１,37.815702,138.2793774,3.2,9,営業中,,0259-86-2401,公式サイトなし,価格情報なし,"観光スポット, 店舗, 施設",観光スポットです。評価3.2（9件のレビュー）。佐渡島にあります。,不可,不可,不可,不可,不可,不可,小木,CID URL検索,2025-08-09 12:35:23
ChIJqRdeXNKb9F8RvrOC-XEH514,はまのかふぇ CoMaDo,日本、〒952-0704 新潟県佐渡市莚場９９６−２,37.8911975,138.4507601,4.7,30,営業中,,情報なし,https://www.instagram.com/hamacafe_comado/,価格情報なし,"カフェ, 飲食店, 観光スポット, 施設","カフェです。評価4.7（30件のレビュー）。店内飲食, テイクアウトに対応。佐渡島にあります。",可,不可,可,不可,不可,不可,佐渡市内,CID URL検索,2025-08-09 12:35:24
ChIJia_EVraE9F8RuMO44oMn9F0,エーコープ 佐渡赤泊店,日本、〒952-0706 新潟県佐渡市徳和２３６６,37.871901099999995,138.41555649999998,3.1,52,営業中,月曜日: 9時00分～19時00分; 火曜日: 9時00分～19時00分; 水曜日: 9時00分～19時00分; 木曜日: 9時00分～19時00分; 金曜日: 9時00分～19時00分; 土曜日: 9時00分～19時00分; 日曜日: 9時00分～19時00分,0259-87-3134,http://www.ja-sado-niigata.or.jp/Mainmenu/22_works/H_A-coop/acoop_index.html,価格情報なし,"スーパーマーケット, 店舗, 飲食店, 観光スポット, 施設",スーパーマーケットです。評価3.1（52件のレビュー）。佐渡島にあります。,不可,不可,不可,不可,不可,不可,佐渡市内,CID URL検索,2025-08-09 12:35:25
ChIJD1Wpm7eE9F8RNbK46WAcFOc,（株）北雪酒造,日本、〒952-0706 新潟県佐渡市徳和２３７７−２,37.870606599999995,138.4136221,4.5,222,営業中,月曜日: 9時00分～16時30分; 火曜日: 9時00分～16時30分; 水曜日: 9時00分～16時30分; 木曜日: 9時00分～16時30分; 金曜日: 9時00分～16時30分; 土曜日: 9時00分～16時30分; 日曜日: 9時00分～16時30分,0259-87-3105,http://www.sake-hokusetsu.com/,価格情報なし,"店舗, 観光スポット, 施設",店舗です。評価4.5（222件のレビュー）。佐渡島にあります。,不可,不可,不可,不可,不可,不可,佐渡市内,CID URL検索,2025-08-09 12:35:27
ChIJg8327UiE9F8Rh7MVd7v4HV4,後藤ブロイラー,日本、〒952-0715 新潟県佐渡市杉野浦４８,37.84287,138.37767499999998,5,2,営業中,,0259-87-2547,公式サイトなし,価格情報なし,"飲食店, 観光スポット, 施設",飲食店です。評価5（2件のレビュー）。佐渡島にあります。,不可,不可,不可,不可,不可,不可,佐渡市内,CID URL検索,2025-08-09 12:35:28
ChIJs3TQ7vZc818R1ajZtoPku6Q,Club Ray's,日本、〒952-0011 新潟県佐渡市両津夷２６１−１５４,38.0842204,138.4313947,1,1,営業中,,情報なし,公式サイトなし,価格情報なし,"観光スポット, 施設",観光スポットです。評価1（1件のレビュー）。店内飲食に対応。佐渡島にあります。,不可,不可,可,不可,不可,不可,両津,CID URL検索,2025-08-09 12:35:30
ChIJa771iRlk818RHNUCnTrXA8I,ＣｏＣｏカラオケスタジオ,日本、〒952-1325 新潟県佐渡市窪田４７−５,38.006553,138.312757,3.9,29,営業中,月曜日: 9時00分～0時00分; 火曜日: 9時00分～0時00分; 水曜日: 定休日; 木曜日: 9時00分～0時00分; 金曜日: 9時00分～0時00分; 土曜日: 9時00分～0時00分; 日曜日: 9時30分～0時00分,0259-58-7878,公式サイトなし,価格情報なし,"バー, 観光スポット, 施設",バーです。評価3.9（29件のレビュー）。店内飲食に対応。佐渡島にあります。,不可,不可,可,不可,不可,不可,佐渡市内,CID URL検索,2025-08-09 12:35:31
ChIJhdJbnZ9h818RkfA0hmbJwzA,喫茶 スナック花音,日本、〒952-0206 新潟県佐渡市畑野甲５６２−１,37.989030899999996,138.3961893,4.4,20,営業中,"月曜日: 11時00分～14時00分; 火曜日: 11時00分～14時00分, 19時00分～0時00分; 水曜日: 11時00分～14時00分, 19時00分～0時00分; 木曜日: 11時00分～14時00分, 19時00分～0時00分; 金曜日: 11時00分～14時00分, 19時00分～0時00分; 土曜日: 19時00分～0時00分; 日曜日: 19時00分～0時00分",0259-66-3732,https://www.instagram.com/kano_n403?igsh=a3MyMW5ucG8xMnFp&utm_source=qr,価格情報なし,"バー, カフェ, 飲食店, 観光スポット, 店舗, 施設","バーです。評価4.4（20件のレビュー）。店内飲食, テイクアウトに対応。佐渡島にあります。",可,不可,可,不可,不可,不可,畑野,CID URL検索,2025-08-09 12:35:33
ChIJjxHySCc1818R65IYOkBJ7AY,大野亀ロッジ(カフェ·食事),日本、〒952-3203 新潟県佐渡市願１４９,38.319694999999996,138.466534,3.9,282,営業中,月曜日: 11時00分～16時00分; 火曜日: 11時00分～16時00分; 水曜日: 11時00分～16時00分; 木曜日: 11時00分～16時00分; 金曜日: 11時00分～16時00分; 土曜日: 11時00分～16時00分; 日曜日: 11時00分～16時00分,0259-26-2410,https://www.visitsado.com/spot/detail0346/,普通,"シーフードレストラン, レストラン, 飲食店, 観光スポット, 施設",シーフードレストランです。評価3.9（282件のレビュー）。価格帯は普通です。店内飲食に対応。佐渡島にあります。,不可,不可,可,不可,可,不可,佐渡市内,CID URL検索,2025-08-09 12:35:34
ChIJdY2Zhjdh818Rhu89gviU96Q,慶幸屋台湾料理店,"20 新穗, 佐渡市 新潟県 952-0116 日本",38.0145336,138.4222714,4.9,66,営業中,月曜日: 定休日; 火曜日: 定休日; 水曜日: 11時00分～17時00分; 木曜日: 11時00分～17時00分; 金曜日: 11時00分～17時00分; 土曜日: 11時00分～17時00分; 日曜日: 11時00分～17時00分,070-9076-4644,https://instagram.com/kyosachiya?igshid=YmMyMTA2M2Y=,価格情報なし,"和食レストラン, レストラン, 飲食店, 観光スポット, 施設","和食レストランです。評価4.9（66件のレビュー）。店内飲食, テイクアウトに対応。佐渡島にあります。",可,不可,可,不可,可,可,佐渡市内,CID URL検索,2025-08-09 12:35:36
ChIJkbRw_s5L818Rycweh61GJe8,メレパレカイコ,日本、〒952-3111 新潟県佐渡市虫崎２１３,38.2495748,138.5054735,4.7,35,営業中,月曜日: 定休日; 火曜日: 定休日; 水曜日: 11時00分～15時00分; 木曜日: 11時00分～15時00分; 金曜日: 11時00分～15時00分; 土曜日: 11時00分～15時00分; 日曜日: 11時00分～15時00分,0259-26-2856,https://www.instagram.com/merepalekaiko/,価格情報なし,"レストラン, 飲食店, 観光スポット, 施設","レストランです。評価4.7（35件のレビュー）。店内飲食, テイクアウトに対応。佐渡島にあります。",可,不可,可,不可,可,可,佐渡市内,CID URL検索,2025-08-09 12:35:37
ChIJqd-DmtJP818RWCUwf4lRARM,うんすけ,日本、〒952-3116 新潟県佐渡市北松ケ崎２６８−１,38.1798703,138.47560990000002,5,3,営業中,月曜日: 定休日; 火曜日: 定休日; 水曜日: 定休日; 木曜日: 定休日; 金曜日: 定休日; 土曜日: 9時30分～15時00分; 日曜日: 定休日,情報なし,公式サイトなし,価格情報なし,"和食レストラン, レストラン, 飲食店, 観光スポット, 施設",和食レストランです。評価5（3件のレビュー）。店内飲食に対応。佐渡島にあります。,不可,不可,可,不可,不可,不可,佐渡市内,CID URL検索,2025-08-09 12:35:39
ChIJmRNEVBxd818RaJfwc9fnINI,四季彩 味よし,日本、〒952-0005 新潟県佐渡市梅津２１０８−１,38.0967938,138.434394,4.5,95,営業中,"月曜日: 定休日; 火曜日: 11時30分～14時00分, 17時30分～21時00分; 水曜日: 11時30分～14時00分, 17時30分～21時00分; 木曜日: 11時30分～14時00分, 17時30分～21時00分; 金曜日: 11時30分～14時00分, 17時30分～21時00分; 土曜日: 11時30分～14時00分, 17時30分～21時00分; 日曜日: 11時30分～14時00分",090-3333-1760,https://shikisai-ajiyoshi.com/index.html,価格情報なし,"和食レストラン, シーフードレストラン, レストラン, 観光スポット, 飲食店, 施設","和食レストランです。評価4.5（95件のレビュー）。店内飲食, テイクアウトに対応。佐渡島にあります。",可,不可,可,不可,可,可,佐渡市内,CID URL検索,2025-08-09 12:35:40
ChIJTwia1dBm818RRnv5q6_AkrQ,かとうレストラン,日本、〒952-1209 新潟県佐渡市千種５５−２,38.0219071,138.36430679999998,4.2,105,営業中,"月曜日: 11時00分～14時00分, 17時00分～22時00分; 火曜日: 11時00分～14時00分, 17時00分～22時00分; 水曜日: 11時00分～14時00分, 17時00分～22時00分; 木曜日: 11時00分～14時00分, 17時00分～22時00分; 金曜日: 11時00分～14時00分, 17時00分～22時00分; 土曜日: 11時00分～14時00分, 17時00分～22時00分; 日曜日: 11時00分～14時00分, 17時00分～22時00分",0259-63-3339,公式サイトなし,価格情報なし,"和食レストラン, レストラン, 飲食店, 観光スポット, 施設",和食レストランです。評価4.2（105件のレビュー）。店内飲食に対応。佐渡島にあります。,不可,不可,可,不可,可,可,佐渡市内,CID URL検索,2025-08-09 12:35:42
ChIJod7Y2eJd818RmqsAKOhuLbk,キッチンよろこんで原黒店,日本、〒952-0016 新潟県佐渡市原黒１０９,38.074034499999996,138.44337919999998,4.4,290,営業中,"月曜日: 11時00分～14時00分, 16時30分～20時00分; 火曜日: 11時00分～14時00分, 16時30分～20時00分; 水曜日: 11時00分～14時00分, 16時30分～20時00分; 木曜日: 11時00分～14時00分, 16時30分～20時00分; 金曜日: 11時00分～14時00分, 16時30分～20時00分; 土曜日: 11時00分～14時00分, 16時30分～20時00分; 日曜日: 11時00分～14時00分, 16時30分～20時00分",0259-67-7726,https://www.s-taira.jp/yorokonde/,普通,"和食レストラン, レストラン, 飲食店, 観光スポット, 施設","和食レストランです。評価4.4（290件のレビュー）。価格帯は普通です。店内飲食, テイクアウトに対応。佐渡島にあります。",可,不可,可,不可,可,可,佐渡市内,CID URL検索,2025-08-09 12:35:43
ChIJ17FDPjJj818RnA3Clw70Des,LA PAGODE（ラ パゴッド）,日本、〒952-0303 新潟県佐渡市阿佛坊１８−１,37.9721009,138.3735705,4.5,51,営業中,"月曜日: 18時00分～21時00分; 火曜日: 定休日; 水曜日: 定休日; 木曜日: 10時30分～15時00分, 18時00分～21時00分; 金曜日: 10時30分～15時00分, 18時00分～21時00分; 土曜日: 10時30分～21時00分; 日曜日: 10時30分～21時00分",090-9246-7264,https://www.instagram.com/la_pagode_2022/,価格情報なし,"レストラン, カフェ, 飲食店, 観光スポット, 施設","レストランです。評価4.5（51件のレビュー）。店内飲食, テイクアウトに対応。佐渡島にあります。",可,不可,可,不可,可,可,佐渡市内,CID URL検索,2025-08-09 12:35:45
ChIJy2dEML9n818RxFQQ5_Fl1HU,佐渡うどん 蒼囲（あおい）,日本、〒952-1209 新潟県佐渡市千種 乙153-1,38.025022,138.36351589999998,4.3,175,営業中,"月曜日: 11時00分～15時00分, 17時00分～20時00分; 火曜日: 11時00分～15時00分, 17時00分～20時00分; 水曜日: 11時00分～15時00分, 17時00分～20時00分; 木曜日: 11時00分～15時00分, 17時00分～20時00分; 金曜日: 11時00分～15時00分, 17時00分～20時00分; 土曜日: 11時00分～15時00分, 17時00分～20時00分; 日曜日: 11時00分～15時00分, 17時00分～20時00分",0259-67-7678,https://to-kinari.jp/aoi/,普通,"和食レストラン, レストラン, 観光スポット, 飲食店, 施設","和食レストランです。評価4.3（175件のレビュー）。価格帯は普通です。店内飲食, テイクアウトに対応。佐渡島にあります。",可,不可,可,不可,可,可,佐渡市内,CID URL検索,2025-08-09 12:35:46
ChIJj5iWyA9k818RHRcNHj_wH3U,レストラン SEISUKE Next Door,日本、〒952-1315 新潟県佐渡市河原田諏訪町２０７−７６ １F 複合施設 On the 美一,38.0019616,138.3149252,3.9,23,営業中,,0259-58-7077,https://www.sadoseisuke.com/,価格情報なし,"シーフードレストラン, レストラン, 観光スポット, 飲食店, 施設","シーフードレストランです。評価3.9（23件のレビュー）。店内飲食, テイクアウトに対応。佐渡島にあります。",可,不可,可,不可,可,可,佐渡市内,CID URL検索,2025-08-09 12:35:48
ChIJ6XZMbBBk818ROhUV0DCCuwI,りきすし さわた,日本、〒952-1315 新潟県佐渡市河原田諏訪町１１２,38.003724399999996,138.3138431,,,営業中,月曜日: 18時00分～21時00分; 火曜日: 18時00分～21時00分; 水曜日: 定休日; 木曜日: 18時00分～21時00分; 金曜日: 18時00分～21時00分; 土曜日: 18時00分～21時00分; 日曜日: 定休日,0259-57-1991,公式サイトなし,普通,"寿司店, シーフードレストラン, 和食レストラン, レストラン, 観光スポット, 飲食店, 施設",寿司店です。価格帯は普通です。店内飲食に対応。佐渡島にあります。,不可,不可,可,不可,不可,可,佐渡市内,CID URL検索,2025-08-09 12:35:49
ChIJtVBxj1hd818RBWeSnccLybU,フカマル商店 Aコープ加茂店,日本、〒952-0005 新潟県佐渡市梅津２３２７−４,38.0934672,138.43234909999998,3,1,営業中,月曜日: 定休日; 火曜日: 定休日; 水曜日: 9時00分～17時00分; 木曜日: 定休日; 金曜日: 9時00分～17時00分; 土曜日: 定休日; 日曜日: 定休日,情報なし,https://fukamaru.info/,価格情報なし,"ファーストフード, レストラン, 飲食店, 観光スポット, 施設","ファーストフードです。評価3（1件のレビュー）。店内飲食, テイクアウトに対応。佐渡島にあります。",可,不可,可,不可,不可,不可,佐渡市内,CID URL検索,2025-08-09 12:35:51
ChIJk5wUUfpc818RXFjXcA9oMQA,ほっともっと 佐渡両津店,日本、〒952-0028 新潟県佐渡市加茂歌代字境４０２−１,38.0804453,138.4185109,3.6,38,営業中,月曜日: 7時00分～22時00分; 火曜日: 7時00分～22時00分; 水曜日: 7時00分～22時00分; 木曜日: 7時00分～22時00分; 金曜日: 7時00分～22時00分; 土曜日: 7時00分～22時00分; 日曜日: 7時00分～22時00分,0259-24-7200,https://store.hottomotto.com/b/hottomotto/info/28089/,手頃,"デリバリー, ファーストフード, テイクアウト, 和食レストラン, 店舗, レストラン, 飲食店, 観光スポット, 施設","デリバリーです。評価3.6（38件のレビュー）。価格帯は手頃です。テイクアウト, デリバリーに対応。佐渡島にあります。",可,可,不可,不可,可,可,佐渡市内,CID URL検索,2025-08-09 12:35:53
ChIJ5VdxsZJc818RvFy2druQ4is,夢喰の家,日本、〒952-0006 新潟県佐渡市春日１０２７−７,38.091204399999995,138.4316232,4,44,営業中,"月曜日: 11時30分～14時00分, 18時00分～23時00分; 火曜日: 11時30分～14時00分, 18時00分～23時00分; 水曜日: 11時30分～14時00分, 18時00分～23時00分; 木曜日: 11時30分～14時00分, 18時00分～23時00分; 金曜日: 11時30分～14時00分, 18時00分～23時00分; 土曜日: 11時30分～14時00分, 18時00分～23時00分; 日曜日: 11時30分～14時00分, 18時00分～23時00分",0259-23-3100,公式サイトなし,普通,"レストラン, 飲食店, 観光スポット, 施設",レストランです。評価4（44件のレビュー）。価格帯は普通です。店内飲食に対応。佐渡島にあります。,不可,不可,可,不可,可,可,佐渡市内,CID URL検索,2025-08-09 12:35:54
ChIJIy6GX41c818R16UkNQeNF70,みかわ mikawa（カフェ）,日本、〒952-0006 新潟県佐渡市春日１７６−３,38.091102299999996,138.43319490000002,4.3,170,営業中,月曜日: 7時00分～17時00分; 火曜日: 7時00分～17時00分; 水曜日: 定休日; 木曜日: 定休日; 金曜日: 7時00分～17時00分; 土曜日: 7時00分～17時00分; 日曜日: 7時00分～17時00分,0259-67-7973,https://www.instagram.com/mikawa_sado?igsh=MW4xZWYyb2kxYmg1bQ==,普通,"カフェ, 店舗, 飲食店, 観光スポット, 施設","カフェです。評価4.3（170件のレビュー）。価格帯は普通です。店内飲食, テイクアウトに対応。佐渡島にあります。",可,不可,可,可,可,不可,佐渡市内,CID URL検索,2025-08-09 12:35:55
ChIJ1dfu3fJc818Rma93SBwJ8Fg,割烹ふじはら,日本、〒952-0006 新潟県佐渡市春日１０５,38.088963,138.432789,4.3,30,営業中,月曜日: 10時00分～21時00分; 火曜日: 10時00分～21時00分; 水曜日: 10時00分～21時00分; 木曜日: 10時00分～21時00分; 金曜日: 10時00分～21時00分; 土曜日: 10時00分～21時00分; 日曜日: 10時00分～21時00分,0259-27-4531,公式サイトなし,普通,"和食レストラン, レストラン, 飲食店, 観光スポット, 施設",和食レストランです。評価4.3（30件のレビュー）。価格帯は普通です。店内飲食に対応。佐渡島にあります。,不可,不可,可,不可,不可,可,佐渡市内,CID URL検索,2025-08-09 12:35:57
ChIJX0knmodh818ReDei-oQB7-g,まちの洋食屋 ル アッシュ,日本、〒952-0206 新潟県佐渡市畑野甲４０９−１,37.9946161,138.39680370000002,4,83,営業中,"月曜日: 11時30分～15時00分, 17時30分～21時00分; 火曜日: 11時30分～15時00分, 17時30分～21時00分; 水曜日: 11時30分～15時00分, 17時30分～21時00分; 木曜日: 定休日; 金曜日: 11時30分～15時00分, 17時30分～21時00分; 土曜日: 11時30分～15時00分, 17時30分～21時00分; 日曜日: 11時30分～15時00分, 17時30分～21時00分",0259-67-7310,公式サイトなし,普通,"レストラン, 飲食店, 観光スポット, 施設","レストランです。評価4（83件のレビュー）。価格帯は普通です。店内飲食, テイクアウトに対応。佐渡島にあります。",可,不可,可,不可,可,可,畑野,CID URL検索,2025-08-09 12:35:59
ChIJZ2PN_hBk818RJoXMlzDFhvs,FRENCH La Plage,日本、〒952-1325 新潟県佐渡市窪田９７８−３,38.004170099999996,138.3105939,4.6,113,営業中,"月曜日: 11時30分～14時00分, 18時00分～20時00分; 火曜日: 11時30分～14時00分, 18時00分～20時00分; 水曜日: 11時30分～14時00分, 18時00分～20時00分; 木曜日: 11時30分～14時00分, 18時00分～20時00分; 金曜日: 11時30分～14時00分, 18時00分～20時00分; 土曜日: 11時30分～14時00分, 18時00分～20時00分; 日曜日: 11時30分～14時00分, 18時00分～20時00分",0259-57-3751,https://www.urasima.com/,価格情報なし,"レストラン, 飲食店, 観光スポット, 施設",レストランです。評価4.6（113件のレビュー）。店内飲食に対応。佐渡島にあります。,不可,不可,可,不可,可,可,佐渡市内,CID URL検索,2025-08-09 12:36:00
ChIJFc2xWkZj818R5SNPHCy1iiI,じんのびcafe＆restaurant,日本、〒952-0313 新潟県佐渡市真野２７５−１,37.9585809,138.3459928,4.3,96,営業中,"月曜日: 11時00分～15時00分, 16時30分～21時00分; 火曜日: 11時00分～15時00分, 16時30分～21時00分; 水曜日: 11時00分～15時00分, 16時30分～21時00分; 木曜日: 11時00分～15時00分, 16時30分～21時00分; 金曜日: 11時00分～15時00分, 16時30分～21時00分; 土曜日: 11時00分～15時00分, 16時30分～21時00分; 日曜日: 11時00分～15時00分, 16時30分～21時00分",0259-55-1788,https://www.s-taira.jp/jinnobi/,手頃,"レストラン, 飲食店, 観光スポット, 施設","レストランです。評価4.3（96件のレビュー）。価格帯は手頃です。店内飲食, テイクアウトに対応。佐渡島にあります。",可,不可,可,不可,可,可,真野,CID URL検索,2025-08-09 12:36:02
ChIJY29JU4-H9F8RCaDQf_VWDRM,オリジヌ,日本、〒952-0604 新潟県佐渡市小木町１９４０−３,37.815368,138.27666499999998,5,24,営業中,"月曜日: 7時30分～10時00分, 18時00分～22時00分; 火曜日: 18時00分～22時00分; 水曜日: 18時00分～22時00分; 木曜日: 18時00分～22時00分; 金曜日: 7時30分～10時00分, 18時00分～22時00分; 土曜日: 7時30分～10時00分, 18時00分～22時00分; 日曜日: 7時30分～10時00分, 18時00分～22時00分",080-2115-9996,https://www.instagram.com/origine_sk/,価格情報なし,"レストラン, 飲食店, 観光スポット, 施設",レストランです。評価5（24件のレビュー）。店内飲食に対応。佐渡島にあります。,不可,不可,可,可,可,可,小木,CID URL検索,2025-08-09 12:36:03
ChIJo6L_nU1i818RDiyxf7WUVxQ,レストラン こさど,日本、〒952-0318 新潟県佐渡市真野新町２７５−２,37.967681,138.3462793,4.1,227,営業中,"月曜日: 11時00分～14時00分, 17時00分～21時00分; 火曜日: 11時00分～14時00分; 水曜日: 定休日; 木曜日: 11時00分～14時00分, 17時00分～21時00分; 金曜日: 11時00分～14時00分, 17時00分～21時00分; 土曜日: 11時00分～14時00分, 17時00分～21時00分; 日曜日: 11時00分～14時00分, 17時00分～21時00分",0259-55-4004,https://kosado.com/,普通,"ステーキハウス, レストラン, 観光スポット, 飲食店, 施設","ステーキハウスです。評価4.1（227件のレビュー）。価格帯は普通です。店内飲食, テイクアウトに対応。佐渡島にあります。",可,不可,可,不可,可,可,真野,CID URL検索,2025-08-09 12:36:05
ChIJbcyLaQBl818R9VE-tVzUxNE,クラブレストランILE RICHE,日本、〒952-1325 新潟県佐渡市窪田９７８−３,38.0042625,138.31066669999998,,,営業中,,情報なし,https://news.3rd-in.co.jp/article/b0972248-1299-11f0-afad-9ca3ba083d71#gsc.tab=0,価格情報なし,"和食レストラン, レストラン, 飲食店, 観光スポット, 施設",和食レストランです。佐渡島にあります。,不可,不可,不可,不可,不可,不可,佐渡市内,CID URL検索,2025-08-09 12:36:06
ChIJ6QpCdPpd818RXRYznml5EfU,のりば食堂 しおさい 両津店,日本、〒952-0014 新潟県佐渡市両津湊３５３ 両津港,38.081744,138.4380921,,,営業中,月曜日: 10時00分～19時30分; 火曜日: 10時00分～19時30分; 水曜日: 10時00分～19時30分; 木曜日: 10時00分～19時30分; 金曜日: 10時00分～19時30分; 土曜日: 10時00分～19時30分; 日曜日: 10時00分～19時30分,0259-27-3277,http://www.sadokisensyouji.jp/01restaurant/sub04.php,価格情報なし,"和食レストラン, レストラン, 飲食店, 観光スポット, 施設",和食レストランです。店内飲食に対応。佐渡島にあります。,不可,不可,可,不可,不可,不可,両津,CID URL検索,2025-08-09 12:36:08
ChIJfZb8lVlc818RDcwm3qoU4rk,味処 天國,日本、〒952-0014 新潟県佐渡市両津湊２０６,38.0796778,138.43641449999998,4.2,149,営業中,"月曜日: 11時30分～13時30分, 17時30分～21時30分; 火曜日: 11時30分～13時30分, 17時30分～21時30分; 水曜日: 11時30分～13時30分, 17時30分～21時30分; 木曜日: 11時30分～13時30分, 17時30分～21時30分; 金曜日: 11時30分～13時30分, 17時30分～21時30分; 土曜日: 11時30分～13時30分, 17時30分～21時30分; 日曜日: 11時30分～13時30分, 17時30分～21時30分",0259-23-2714,公式サイトなし,普通,"和食レストラン, レストラン, 観光スポット, 飲食店, 施設",和食レストランです。評価4.2（149件のレビュー）。価格帯は普通です。店内飲食に対応。佐渡島にあります。,不可,不可,可,不可,可,可,両津,CID URL検索,2025-08-09 12:36:10
ChIJFV2CwyFn818R603pBts9JvY,味彩 たびのホテル佐渡,日本、〒952-1209 新潟県佐渡市千種１１３−１２,38.0202631,138.3642917,4.1,167,営業中,月曜日: 18時00分～21時00分; 火曜日: 18時00分～21時00分; 水曜日: 定休日; 木曜日: 18時00分～21時00分; 金曜日: 18時00分～21時00分; 土曜日: 18時00分～21時00分; 日曜日: 18時00分～20時30分,0259-58-8010,https://sado.tabino-hotel.jp/breakfast.html,普通,"レストラン, 飲食店, 観光スポット, 施設",レストランです。評価4.1（167件のレビュー）。価格帯は普通です。店内飲食に対応。佐渡島にあります。,不可,不可,可,可,可,可,佐渡市内,CID URL検索,2025-08-09 12:36:11
ChIJ503VrrBn818R3wgqqIB3jqE,欧風食堂 Kubo屋,日本、〒952-1209 新潟県佐渡市千種９６８−１,38.0214066,138.3628417,4.1,28,営業中,"月曜日: 定休日; 火曜日: 11時00分～14時00分, 18時00分～21時00分; 水曜日: 11時00分～14時00分, 18時00分～21時00分; 木曜日: 11時00分～14時00分, 18時00分～21時00分; 金曜日: 11時00分～14時00分, 18時00分～21時00分; 土曜日: 11時00分～14時00分, 18時00分～21時00分; 日曜日: 11時00分～14時00分, 18時00分～21時00分",0259-58-7427,https://www.instagram.com/kuboya_official/,価格情報なし,"レストラン, 飲食店, 観光スポット, 施設","レストランです。評価4.1（28件のレビュー）。店内飲食, テイクアウトに対応。佐渡島にあります。",可,不可,可,不可,可,可,佐渡市内,CID URL検索,2025-08-09 12:36:13
ChIJeSXQ_1hc818R0bU4lXZg7i0,お食事処 いさりび,日本、〒952-0014 新潟県佐渡市両津湊１３９−４,38.080847,138.436264,3.7,169,営業中,月曜日: 10時00分～21時00分; 火曜日: 10時00分～21時00分; 水曜日: 10時00分～21時00分; 木曜日: 10時00分～21時00分; 金曜日: 10時00分～21時00分; 土曜日: 10時00分～21時00分; 日曜日: 定休日,0259-27-6374,公式サイトなし,普通,"和食レストラン, レストラン, 飲食店, 観光スポット, 施設",和食レストランです。評価3.7（169件のレビュー）。価格帯は普通です。店内飲食に対応。佐渡島にあります。,不可,不可,可,不可,可,可,両津,CID URL検索,2025-08-09 12:36:14
ChIJp3xV7PZc818RPBFb5gkY7tk,創作料理 男の台所タロー,日本、〒952-0011 新潟県佐渡市両津夷２６１−５２,38.084418899999996,138.4320462,4.5,36,営業中,月曜日: 18時00分～0時00分; 火曜日: 18時00分～0時00分; 水曜日: 18時00分～0時00分; 木曜日: 定休日; 金曜日: 18時00分～0時00分; 土曜日: 18時00分～0時00分; 日曜日: 18時00分～0時00分,0259-24-7133,公式サイトなし,価格情報なし,"和食レストラン, レストラン, 飲食店, 観光スポット, 施設",和食レストランです。評価4.5（36件のレビュー）。店内飲食に対応。佐渡島にあります。,不可,不可,可,不可,可,不可,両津,CID URL検索,2025-08-09 12:36:16
ChIJ3-01tgph818Ru0Y5DTnlC3M,食祭 新倉,日本、〒952-0108 新潟県佐渡市上新穂７１１−２,38.0146203,138.4137389,4.1,37,営業中,"月曜日: 11時30分～14時00分, 18時00分～21時00分; 火曜日: 定休日; 水曜日: 11時30分～14時00分, 18時00分～21時00分; 木曜日: 11時30分～14時00分, 18時00分～21時00分; 金曜日: 11時30分～14時00分, 18時00分～21時00分; 土曜日: 11時30分～14時00分, 18時00分～21時00分; 日曜日: 11時30分～14時00分, 18時00分～21時00分",0259-58-9221,https://r.goope.jp/ni-kura/,価格情報なし,"和食レストラン, レストラン, 飲食店, 観光スポット, 施設",和食レストランです。評価4.1（37件のレビュー）。店内飲食に対応。佐渡島にあります。,不可,不可,可,不可,可,可,新穂,CID URL検索,2025-08-09 12:36:17
ChIJE5O89t9k818RFQkgMUSHg0k,御食事処 夫婦岩（佐渡めおと岩観光）,日本、〒952-1645 新潟県佐渡市高瀬１２６７−５,37.996372199999996,138.2355011,3.8,167,営業中,月曜日: 8時00分～17時00分; 火曜日: 8時00分～17時00分; 水曜日: 8時00分～17時00分; 木曜日: 8時00分～17時00分; 金曜日: 8時00分～17時00分; 土曜日: 8時00分～17時00分; 日曜日: 8時00分～17時00分,0259-76-2511,http://sado.meoto.net/,普通,"レストラン, 飲食店, 観光スポット, 施設",レストランです。評価3.8（167件のレビュー）。価格帯は普通です。店内飲食に対応。佐渡島にあります。,不可,不可,可,不可,可,不可,佐渡市内,CID URL検索,2025-08-09 12:36:19
ChIJ7cIEYIJh818R6S2MpaQsREQ,味心 神楽,日本、〒952-0212 新潟県佐渡市宮川甲２９０−１３,37.984390999999995,138.3825341,4.4,94,営業中,"月曜日: 11時00分～13時30分; 火曜日: 定休日; 水曜日: 定休日; 木曜日: 11時00分～13時30分, 18時00分～21時00分; 金曜日: 11時00分～13時30分, 18時00分～21時00分; 土曜日: 11時00分～13時30分, 18時00分～21時00分; 日曜日: 11時00分～13時30分, 18時00分～21時00分",0259-66-2822,公式サイトなし,普通,"和食レストラン, レストラン, 観光スポット, 飲食店, 施設",和食レストランです。評価4.4（94件のレビュー）。価格帯は普通です。店内飲食に対応。佐渡島にあります。,不可,不可,可,不可,可,可,佐渡市内,CID URL検索,2025-08-09 12:36:20
ChIJt_EjHgBd818RC_X09BhPVQI,タカノ食堂,日本、〒952-0011 新潟県佐渡市両津夷１９８−６,38.0839174,138.43279569999999,4.3,7,営業中,月曜日: 定休日; 火曜日: 18時00分～1時00分; 水曜日: 18時00分～1時00分; 木曜日: 18時00分～1時00分; 金曜日: 18時00分～1時00分; 土曜日: 18時00分～1時00分; 日曜日: 18時00分～1時00分,情報なし,公式サイトなし,価格情報なし,"和食レストラン, レストラン, 飲食店, 観光スポット, 施設",和食レストランです。評価4.3（7件のレビュー）。店内飲食に対応。佐渡島にあります。,不可,不可,可,不可,可,不可,両津,CID URL検索,2025-08-09 12:36:22
ChIJFbKKrABj818RK2eUY89eWjE,夕食堂,日本、〒952-0318 新潟県佐渡市真野新町４１２,37.9603726,138.3424365,4.4,102,営業中,"月曜日: 11時30分～14時30分, 18時00分～20時00分; 火曜日: 11時30分～14時30分, 18時00分～20時00分; 水曜日: 11時30分～14時30分, 18時00分～20時00分; 木曜日: 11時30分～14時30分, 18時00分～20時00分; 金曜日: 11時30分～14時30分, 18時00分～20時00分; 土曜日: 11時30分～14時30分, 18時00分～20時00分; 日曜日: 11時30分～14時30分, 18時00分～20時00分",070-9075-2401,https://www.facebook.com/yuushokudousado,普通,"レストラン, 飲食店, 観光スポット, 施設",レストランです。評価4.4（102件のレビュー）。価格帯は普通です。店内飲食に対応。佐渡島にあります。,不可,不可,可,不可,可,可,真野,CID URL検索,2025-08-09 12:36:23
ChIJR7y4d_Zc818RwGFrqpDiRqI,鴨湖庵,日本、〒952-0011 新潟県佐渡市両津夷２５５−６５,38.084074,138.434553,4.1,51,営業中,月曜日: 11時00分～14時00分; 火曜日: 11時00分～14時00分; 水曜日: 11時00分～14時00分; 木曜日: 11時00分～14時00分; 金曜日: 11時00分～14時00分; 土曜日: 11時00分～14時00分; 日曜日: 11時00分～14時00分,0259-27-4155,公式サイトなし,普通,"和食レストラン, レストラン, 飲食店, 観光スポット, 施設",和食レストランです。評価4.1（51件のレビュー）。価格帯は普通です。店内飲食に対応。佐渡島にあります。,不可,不可,可,不可,可,可,両津,CID URL検索,2025-08-09 12:36:25
ChIJV9tWCvBc818RA6HlDpAMD_Y,よし坊,日本、〒952-0028 新潟県佐渡市加茂歌代２９５,38.0856846,138.42284999999998,4.4,40,営業中,月曜日: 定休日; 火曜日: 11時30分～15時00分; 水曜日: 11時30分～15時00分; 木曜日: 11時30分～15時00分; 金曜日: 17時00分～22時00分; 土曜日: 17時00分～22時00分; 日曜日: 定休日,0259-67-7199,公式サイトなし,普通,"和食レストラン, レストラン, 飲食店, 観光スポット, 施設",和食レストランです。評価4.4（40件のレビュー）。価格帯は普通です。店内飲食に対応。佐渡島にあります。,不可,不可,可,不可,可,可,佐渡市内,CID URL検索,2025-08-09 12:36:26
ChIJLYfzpvZc818RaFgJGHOx_TA,おんでこ,日本、〒952-0011 新潟県佐渡市両津夷３０３,38.0852364,138.4321218,4.2,5,営業中,月曜日: 17時30分～22時30分; 火曜日: 17時30分～22時30分; 水曜日: 17時30分～22時30分; 木曜日: 17時30分～22時30分; 金曜日: 17時30分～22時30分; 土曜日: 17時30分～22時30分; 日曜日: 17時30分～22時30分,0259-23-3468,公式サイトなし,価格情報なし,"和食レストラン, レストラン, 飲食店, 観光スポット, 施設",和食レストランです。評価4.2（5件のレビュー）。店内飲食に対応。佐渡島にあります。,不可,不可,可,不可,不可,不可,両津,CID URL検索,2025-08-09 12:36:28
ChIJ2w4nJjld818RtCBc_iD5Sbo,真夜,日本、〒952-0011 新潟県佐渡市両津夷３０２,38.085188699999996,138.432507,3.7,3,営業中,,情報なし,公式サイトなし,価格情報なし,"和食レストラン, レストラン, 観光スポット, 飲食店, 施設",和食レストランです。評価3.7（3件のレビュー）。店内飲食に対応。佐渡島にあります。,不可,不可,可,不可,不可,不可,両津,CID URL検索,2025-08-09 12:36:29
ChIJ_94VWW9d818Ra5eCMYwnnK4,ラーメン よつば,日本、〒952-0011 新潟県佐渡市両津夷１７５−５,38.0850343,138.4321245,4,82,営業中,"月曜日: 定休日; 火曜日: 定休日; 水曜日: 11時30分～13時30分, 17時30分～19時30分; 木曜日: 11時30分～13時30分, 17時30分～19時30分; 金曜日: 11時30分～13時30分, 17時30分～19時30分; 土曜日: 11時30分～13時30分, 17時30分～19時30分; 日曜日: 11時30分～13時30分, 17時30分～19時30分",情報なし,公式サイトなし,価格情報なし,"ラーメン店, 和食レストラン, レストラン, 飲食店, 観光スポット, 施設",ラーメン店です。評価4（82件のレビュー）。店内飲食に対応。佐渡島にあります。,不可,不可,可,不可,可,不可,両津,CID URL検索,2025-08-09 12:36:31
ChIJecd1u_Zc818RPy1xDm27ZWc,酔連,日本、〒952-0011 新潟県佐渡市両津夷232ｰ5,38.085004999999995,138.431626,4,25,営業中,月曜日: 17時30分～22時30分; 火曜日: 17時30分～22時30分; 水曜日: 17時30分～22時30分; 木曜日: 17時30分～22時30分; 金曜日: 17時30分～22時30分; 土曜日: 17時30分～22時30分; 日曜日: 17時30分～22時30分,0259-23-4080,公式サイトなし,価格情報なし,"和食レストラン, レストラン, 飲食店, 観光スポット, 施設","和食レストランです。評価4（25件のレビュー）。店内飲食, テイクアウト, デリバリーに対応。佐渡島にあります。",可,可,可,不可,不可,可,両津,CID URL検索,2025-08-09 12:36:32
ChIJEzlt5N9l818R8MivEw_ZAHo,憩カフェバー&ゲストハウス,日本、〒952-1315 新潟県佐渡市河原田諏訪町30番地,38.002462400000006,138.3173779,4.6,28,営業中,"月曜日: 定休日; 火曜日: 17時30分～22時00分; 水曜日: 17時30分～22時00分; 木曜日: 17時30分～22時00分; 金曜日: 17時30分～23時00分; 土曜日: 11時30分～14時00分, 17時30分～23時00分; 日曜日: 11時30分～14時00分, 17時30分～22時00分",0259-67-7795,公式サイトなし,価格情報なし,"レストラン, 飲食店, 観光スポット, 施設","レストランです。評価4.6（28件のレビュー）。店内飲食, テイクアウトに対応。佐渡島にあります。",可,不可,可,不可,可,可,佐渡市内,CID URL検索,2025-08-09 12:36:33
ChIJU4kgcItl818Rj6Kg6vcfqCE,パーラーつるや,日本、〒952-1556 新潟県佐渡市相川一町目浜町２７,38.032199899999995,138.24119779999998,4,177,営業中,月曜日: 11時30分～18時30分; 火曜日: 11時30分～19時30分; 水曜日: 定休日; 木曜日: 11時30分～19時30分; 金曜日: 11時30分～19時30分; 土曜日: 11時30分～19時30分; 日曜日: 11時30分～19時30分,0259-74-2495,https://www.visitsado.com/spot/detail0294/,手頃,"レストラン, カフェ, 和食レストラン, 飲食店, 観光スポット, 施設",レストランです。評価4（177件のレビュー）。価格帯は手頃です。店内飲食に対応。佐渡島にあります。,不可,不可,可,不可,可,可,相川,CID URL検索,2025-08-09 12:36:35
ChIJNb9s_81m818R0cfjBr7sCWc,食彩創房 亶（ZHËN）,日本、〒952-1211 新潟県佐渡市中興乙１４５８−１２,38.018252,138.3619244,3.8,45,営業中,"月曜日: 11時30分～13時00分, 18時00分～22時30分; 火曜日: 11時30分～13時00分, 18時00分～22時30分; 水曜日: 18時00分～22時30分; 木曜日: 11時30分～13時00分, 18時00分～22時30分; 金曜日: 11時30分～13時00分, 18時00分～22時30分; 土曜日: 11時30分～13時00分, 18時00分～22時30分; 日曜日: 11時30分～13時00分, 18時00分～22時30分",0259-63-4470,https://www.facebook.com/sado.zhen,価格情報なし,"和食レストラン, レストラン, 飲食店, 観光スポット, 施設",和食レストランです。評価3.8（45件のレビュー）。店内飲食に対応。佐渡島にあります。,不可,不可,可,不可,可,可,佐渡市内,CID URL検索,2025-08-09 12:36:36
ChIJMy4PgK9d818RBJw4qv2cmV4,鰻 伊豆榮 佐渡天の川荘店,日本、〒952-0011 新潟県佐渡市両津夷１８２,38.0848008,138.4327215,4,2,営業中,月曜日: 11時00分～14時00分; 火曜日: 11時00分～14時00分; 水曜日: 11時00分～14時00分; 木曜日: 11時00分～14時00分; 金曜日: 11時00分～14時00分; 土曜日: 11時00分～14時00分; 日曜日: 11時00分～14時00分,0259-27-3215,公式サイトなし,価格情報なし,"和食レストラン, レストラン, 飲食店, 観光スポット, 施設",和食レストランです。評価4（2件のレビュー）。店内飲食に対応。佐渡島にあります。,不可,不可,可,不可,可,可,両津,CID URL検索,2025-08-09 12:36:38
ChIJMy4PgK9d818RBJw4qv2cmV4,鰻 伊豆榮 佐渡天の川荘店,日本、〒952-0011 新潟県佐渡市両津夷１８２,38.0848008,138.4327215,4,2,営業中,月曜日: 11時00分～14時00分; 火曜日: 11時00分～14時00分; 水曜日: 11時00分～14時00分; 木曜日: 11時00分～14時00分; 金曜日: 11時00分～14時00分; 土曜日: 11時00分～14時00分; 日曜日: 11時00分～14時00分,0259-27-3215,公式サイトなし,価格情報なし,"和食レストラン, レストラン, 飲食店, 観光スポット, 施設",和食レストランです。評価4（2件のレビュー）。店内飲食に対応。佐渡島にあります。,不可,不可,可,不可,可,可,両津,CID URL検索,2025-08-09 12:36:40
ChIJ3w2x7fZc818RrZfvl4uFMgc,居酒屋 長運,日本、〒952-0011 新潟県佐渡市両津夷２６１,38.084707099999996,138.4317386,4.6,21,営業中,月曜日: 17時30分～22時30分; 火曜日: 定休日; 水曜日: 定休日; 木曜日: 17時30分～22時30分; 金曜日: 17時30分～22時30分; 土曜日: 17時30分～22時30分; 日曜日: 17時30分～22時30分,0259-27-5577,公式サイトなし,価格情報なし,"和食レストラン, レストラン, 飲食店, 観光スポット, 施設",和食レストランです。評価4.6（21件のレビュー）。店内飲食に対応。佐渡島にあります。,不可,不可,可,不可,不可,可,両津,CID URL検索,2025-08-09 12:36:41
ChIJiRnYk_Zc818RNeJLvB3t7T8,天下一,日本、〒952-0011 新潟県佐渡市両津夷１８４ 有楽会館 1F,38.0845434,138.4323431,4.1,27,営業中,月曜日: 18時00分～20時00分; 火曜日: 18時00分～22時00分; 水曜日: 18時00分～22時00分; 木曜日: 18時00分～22時00分; 金曜日: 18時00分～22時00分; 土曜日: 18時00分～22時00分; 日曜日: 18時00分～22時00分,0259-27-5208,公式サイトなし,手頃,"和食レストラン, レストラン, 観光スポット, 飲食店, 施設",和食レストランです。評価4.1（27件のレビュー）。価格帯は手頃です。店内飲食に対応。佐渡島にあります。,不可,不可,可,不可,不可,不可,両津,CID URL検索,2025-08-09 12:36:43
ChIJdfiqmvZc818RNurO9YtObDk,酒処 銀太郎,日本、〒952-0011 新潟県佐渡市両津夷１８６−３,38.0845187,138.432683,4,33,営業中,月曜日: 定休日; 火曜日: 20時00分～1時00分; 水曜日: 20時00分～1時00分; 木曜日: 20時00分～1時00分; 金曜日: 20時00分～1時00分; 土曜日: 20時00分～1時00分; 日曜日: 20時00分～1時00分,0259-27-5926,公式サイトなし,価格情報なし,"和食レストラン, レストラン, 飲食店, 観光スポット, 施設",和食レストランです。評価4（33件のレビュー）。店内飲食に対応。佐渡島にあります。,不可,不可,可,不可,不可,可,両津,CID URL検索,2025-08-09 12:36:44
ChIJA-KH3_ld818RAlLUt5yRlg4,りんか亭,日本、〒952-0011 新潟県佐渡市両津夷２６１−１５４ 2階,38.084479,138.4318345,4.3,4,営業中,月曜日: 定休日; 火曜日: 18時00分～23時00分; 水曜日: 18時00分～23時00分; 木曜日: 18時00分～23時00分; 金曜日: 18時00分～23時00分; 土曜日: 18時00分～23時00分; 日曜日: 18時00分～23時00分,0259-67-7689,公式サイトなし,価格情報なし,"和食レストラン, レストラン, 飲食店, 観光スポット, 施設",和食レストランです。評価4.3（4件のレビュー）。店内飲食に対応。佐渡島にあります。,不可,不可,可,不可,不可,不可,両津,CID URL検索,2025-08-09 12:36:45
ChIJ7zz9QPZc818Rdby_atBghoU,居酒屋 ほたる,日本、〒952-0011 新潟県佐渡市両津夷２１２,38.0832092,138.4335155,4.1,40,営業中,月曜日: 17時30分～23時00分; 火曜日: 17時30分～23時00分; 水曜日: 17時30分～23時00分; 木曜日: 定休日; 金曜日: 17時30分～23時00分; 土曜日: 17時30分～23時00分; 日曜日: 17時30分～23時00分,0259-23-2865,公式サイトなし,価格情報なし,"和食レストラン, レストラン, 飲食店, 観光スポット, 施設",和食レストランです。評価4.1（40件のレビュー）。店内飲食に対応。佐渡島にあります。,不可,不可,可,不可,不可,可,両津,CID URL検索,2025-08-09 12:36:47
ChIJ05JqfvZc818RLMvYcepes28,ゆっ子,日本、〒952-0011 新潟県佐渡市両津夷１８,38.0843407,138.433831,4.4,5,営業中,月曜日: 18時00分～23時00分; 火曜日: 18時00分～23時00分; 水曜日: 18時00分～23時00分; 木曜日: 18時00分～23時00分; 金曜日: 18時00分～23時00分; 土曜日: 18時00分～23時00分; 日曜日: 18時00分～23時00分,0259-27-7471,公式サイトなし,価格情報なし,"和食レストラン, レストラン, 飲食店, 観光スポット, 施設",和食レストランです。評価4.4（5件のレビュー）。店内飲食に対応。佐渡島にあります。,不可,不可,可,不可,不可,不可,両津,CID URL検索,2025-08-09 12:36:49
ChIJl6lUGMxl818RrTXn8XuFUfs,アガン佐渡店,日本、〒952-1324 新潟県佐渡市中原２０８−１ 生活ステーションサン・シティ 内,38.0063871,138.31631,4.5,47,営業中,"月曜日: 11時00分～15時00分; 火曜日: 11時00分～15時00分, 17時00分～22時00分; 水曜日: 11時00分～15時00分, 17時00分～22時00分; 木曜日: 11時00分～15時00分, 17時00分～22時00分; 金曜日: 11時00分～15時00分, 17時00分～22時00分; 土曜日: 11時00分～15時00分, 17時00分～22時00分; 日曜日: 11時00分～15時00分, 17時00分～22時00分",0259-57-7499,https://ospa.jp/agan_sadoten,価格情報なし,"テイクアウト, 和食レストラン, レストラン, 観光スポット, 飲食店, 施設","テイクアウトです。評価4.5（47件のレビュー）。店内飲食, テイクアウトに対応。佐渡島にあります。",可,不可,可,不可,可,可,佐渡市内,CID URL検索,2025-08-09 12:36:50
ChIJHSWZjzRi818R7mjgnBfXRXw,ファミリーレストランたいがあ,日本、〒952-0313 新潟県佐渡市真野７１７−１,37.973808,138.359691,3.9,113,営業中,"月曜日: 11時30分～14時00分, 17時00分～21時00分; 火曜日: 定休日; 水曜日: 11時30分～14時00分, 17時00分～21時00分; 木曜日: 11時30分～14時00分, 17時00分～21時00分; 金曜日: 11時30分～14時00分, 17時00分～21時00分; 土曜日: 11時30分～14時00分, 17時00分～21時00分; 日曜日: 11時30分～14時00分, 17時00分～21時00分",0259-55-3816,公式サイトなし,普通,"中華料理店, レストラン, 飲食店, 観光スポット, 施設",中華料理店です。評価3.9（113件のレビュー）。価格帯は普通です。店内飲食に対応。佐渡島にあります。,不可,不可,可,不可,可,可,真野,CID URL検索,2025-08-09 12:36:52
ChIJmXaigoxl818R2bBomCygMPs,炙り屋ちゃらくらげぇ,日本、〒952-1557 新潟県佐渡市相川一町目１３−１,38.0317471,138.2417667,4.4,48,営業中,月曜日: 18時00分～23時00分; 火曜日: 18時00分～23時00分; 水曜日: 定休日; 木曜日: 18時00分～23時00分; 金曜日: 18時00分～23時00分; 土曜日: 18時00分～23時00分; 日曜日: 18時00分～23時00分,0259-74-2067,https://charakurage.com/,普通,"和食レストラン, レストラン, 観光スポット, 飲食店, 施設",和食レストランです。評価4.4（48件のレビュー）。価格帯は普通です。店内飲食に対応。佐渡島にあります。,不可,不可,可,不可,不可,可,相川,CID URL検索,2025-08-09 12:36:53
ChIJbYfU1JJg818RpoP3FUPj6Fc,なっちゃん,日本、〒952-0108 新潟県佐渡市上新穂６１４,38.0148045,138.4237268,3.9,20,営業中,月曜日: 11時30分～13時00分; 火曜日: 11時30分～13時00分; 水曜日: 11時30分～13時00分; 木曜日: 11時30分～13時00分; 金曜日: 11時30分～13時00分; 土曜日: 11時30分～13時00分; 日曜日: 定休日,0259-22-3959,公式サイトなし,価格情報なし,"和食レストラン, レストラン, 飲食店, 観光スポット, 施設",和食レストランです。評価3.9（20件のレビュー）。店内飲食に対応。佐渡島にあります。,不可,不可,可,不可,可,可,新穂,CID URL検索,2025-08-09 12:36:55
ChIJ-6FQZIxl818Rjhtu8PKOj_I,居酒屋おるふぇ,日本、〒952-1558 新潟県佐渡市相川二町目２７,38.0309227,138.2415015,4,21,営業中,月曜日: 17時30分～22時00分; 火曜日: 17時30分～22時00分; 水曜日: 17時30分～22時00分; 木曜日: 17時30分～22時00分; 金曜日: 17時30分～22時00分; 土曜日: 17時30分～22時00分; 日曜日: 17時30分～22時00分,0259-74-2434,https://www.visitsado.com/spot/detail0280/,価格情報なし,"和食レストラン, レストラン, 飲食店, 観光スポット, 施設",和食レストランです。評価4（21件のレビュー）。店内飲食に対応。佐渡島にあります。,不可,不可,可,不可,不可,不可,相川,CID URL検索,2025-08-09 12:36:56
ChIJ5_Es_MJj818R4TxdE9iJvzk,ちゃらくらもん,日本、〒952-1311 新潟県佐渡市八幡１８９２,37.984325399999996,138.3430503,4.5,83,営業中,月曜日: 18時00分～23時00分; 火曜日: 18時00分～23時00分; 水曜日: 18時00分～23時00分; 木曜日: 18時00分～23時00分; 金曜日: 18時00分～0時00分; 土曜日: 18時00分～0時00分; 日曜日: 定休日,0259-57-2497,https://m.facebook.com/pages/%E5%B1%85%E9%85%92%E5%B1%8B%E3%81%A1%E3%82%83%E3%82%89%E3%81%8F%E3%82%89%E3%82%82%E3%82%93/204196169592466,手頃,"和食レストラン, レストラン, 飲食店, 観光スポット, 施設",和食レストランです。評価4.5（83件のレビュー）。価格帯は手頃です。店内飲食に対応。佐渡島にあります。,不可,不可,可,不可,不可,可,佐渡市内,CID URL検索,2025-08-09 12:36:57
ChIJZ4gdr_Rn818RpL_XKwcG3pw,もつ焼 でん 佐渡金井店,日本、〒952-1209 新潟県佐渡市千種９９−８,38.019891,138.3633151,4.2,91,営業中,月曜日: 15時30分～22時00分; 火曜日: 17時00分～22時00分; 水曜日: 15時30分～22時00分; 木曜日: 15時30分～22時00分; 金曜日: 15時30分～22時00分; 土曜日: 15時30分～22時00分; 日曜日: 定休日,0259-58-7444,https://motsuyakiden.com/,普通,"レストラン, 飲食店, 観光スポット, 施設","レストランです。評価4.2（91件のレビュー）。価格帯は普通です。店内飲食, テイクアウトに対応。佐渡島にあります。",可,不可,可,不可,不可,不可,佐渡市内,CID URL検索,2025-08-09 12:36:59
ChIJO5xxZItl818RBngn247KD-s,古民家食堂 持田家,日本、〒952-1557 新潟県佐渡市相川一町目７,38.0319922,138.2416882,4.1,235,営業中,"月曜日: 定休日; 火曜日: 11時00分～14時00分, 18時00分～21時00分; 水曜日: 11時00分～14時00分, 18時00分～21時00分; 木曜日: 11時00分～14時00分, 18時00分～21時00分; 金曜日: 11時00分～14時00分, 18時00分～21時00分; 土曜日: 11時00分～14時00分, 18時00分～21時00分; 日曜日: 11時00分～14時00分",0259-67-7268,http://www.mochidaya.net/,普通,"和食レストラン, レストラン, 観光スポット, 飲食店, 施設","和食レストランです。評価4.1（235件のレビュー）。価格帯は普通です。店内飲食, テイクアウトに対応。佐渡島にあります。",可,不可,可,不可,可,可,相川,CID URL検索,2025-08-09 12:37:00
ChIJT-v3KwJk818Rqs_QFIdoeBw,彩食美酒ねまれ,日本、〒952-1307 新潟県佐渡市東大通１２９９−１,38.0043204,138.32821629999998,4.3,32,営業中,月曜日: 17時00分～23時00分; 火曜日: 定休日; 水曜日: 定休日; 木曜日: 17時00分～18時00分; 金曜日: 17時00分～23時00分; 土曜日: 17時00分～23時00分; 日曜日: 17時00分～23時00分,0259-67-7311,公式サイトなし,価格情報なし,"和食レストラン, レストラン, 飲食店, 観光スポット, 施設",和食レストランです。評価4.3（32件のレビュー）。店内飲食に対応。佐渡島にあります。,不可,不可,可,不可,不可,可,佐渡市内,CID URL検索,2025-08-09 12:37:02
ChIJnS4Krw9k818RJQqzYAoNjRQ,居酒屋 かっ八,日本、〒952-1315 新潟県佐渡市河原田諏訪町２１１,38.0013527,138.31593909999998,4.6,52,営業中,月曜日: 17時00分～22時30分; 火曜日: 17時00分～22時30分; 水曜日: 17時00分～22時30分; 木曜日: 17時00分～22時30分; 金曜日: 17時00分～22時30分; 土曜日: 17時00分～22時30分; 日曜日: 17時00分～22時30分,0259-52-6455,公式サイトなし,価格情報なし,"和食レストラン, レストラン, 飲食店, 観光スポット, 施設",和食レストランです。評価4.6（52件のレビュー）。店内飲食に対応。佐渡島にあります。,不可,不可,可,不可,不可,可,佐渡市内,CID URL検索,2025-08-09 12:37:03
ChIJRZlE8VKB9F8RkejQL6HZNqU,炭火串焼 えん萬,日本、〒952-0504 新潟県佐渡市羽茂本郷1−４,37.846365,138.313504,4.9,21,営業中,月曜日: 定休日; 火曜日: 17時00分～22時00分; 水曜日: 17時00分～22時00分; 木曜日: 17時00分～22時00分; 金曜日: 17時00分～22時00分; 土曜日: 17時00分～22時00分; 日曜日: 17時00分～22時00分,0259-88-3567,公式サイトなし,価格情報なし,"和食レストラン, レストラン, 観光スポット, 飲食店, 施設",和食レストランです。評価4.9（21件のレビュー）。店内飲食に対応。佐渡島にあります。,不可,不可,可,不可,不可,可,羽茂,CID URL検索,2025-08-09 12:37:05
ChIJTQBjXYxl818RmqUldq7Gr9w,金福(きんぷく),日本、〒952-1558 新潟県佐渡市相川二町目９,38.0306575,138.24193499999998,4.7,149,営業中,月曜日: 17時00分～21時30分; 火曜日: 17時00分～21時30分; 水曜日: 17時00分～21時30分; 木曜日: 17時00分～21時30分; 金曜日: 17時00分～21時30分; 土曜日: 17時00分～21時30分; 日曜日: 定休日,0259-74-3934,公式サイトなし,普通,"和食レストラン, レストラン, 飲食店, 観光スポット, 施設",和食レストランです。評価4.7（149件のレビュー）。価格帯は普通です。店内飲食に対応。佐渡島にあります。,不可,不可,可,不可,不可,可,相川,CID URL検索,2025-08-09 12:37:06
ChIJo7odpQ9k818R--5lQY5hBzc,焼とりやじま Yakitori Yajima,日本、〒952-1315 新潟県佐渡市河原田諏訪町２０８−２１９,38.0015226,138.3157091,4.6,109,営業中,月曜日: 定休日; 火曜日: 17時00分～21時00分; 水曜日: 17時00分～21時00分; 木曜日: 17時00分～21時00分; 金曜日: 17時00分～21時00分; 土曜日: 17時00分～21時00分; 日曜日: 定休日,0259-57-2225,https://www.instagram.com/sadokoku_yajima_yakitori?igsh=cXpta2lsd2tybjg3,価格情報なし,"和食レストラン, レストラン, 飲食店, 観光スポット, 施設","和食レストランです。評価4.6（109件のレビュー）。店内飲食, テイクアウトに対応。佐渡島にあります。",可,不可,可,不可,不可,可,佐渡市内,CID URL検索,2025-08-09 12:37:08
ChIJ2SyUhR9v818Rz0xoOIa6mqk,北沢Terrace（きたざわてらす）,日本、〒952-1539 新潟県佐渡市相川北沢町２,38.037333499999995,138.2413805,4.4,89,営業中,月曜日: 11時00分～16時00分; 火曜日: 11時00分～16時00分; 水曜日: 定休日; 木曜日: 11時00分～16時00分; 金曜日: 11時00分～16時00分; 土曜日: 11時00分～16時00分; 日曜日: 11時00分～16時00分,0259-58-7085,https://www.facebook.com/kitazawa.terrace,価格情報なし,"カフェ, テイクアウト, レストラン, 飲食店, 観光スポット, 施設","カフェです。評価4.4（89件のレビュー）。店内飲食, テイクアウトに対応。佐渡島にあります。",可,不可,可,不可,可,可,相川,CID URL検索,2025-08-09 12:37:09
ChIJl617zlRj818R14KPoQtkG6s,MANOCAMINO（マノカミーノ）,日本、〒952-0318 新潟県佐渡市真野新町４８７−１,37.9657489,138.34588739999998,4.7,30,営業中,"月曜日: 8時00分～13時30分; 火曜日: 定休日; 水曜日: 定休日; 木曜日: 定休日; 金曜日: 17時00分～21時00分; 土曜日: 11時00分～13時30分, 17時00分～21時00分; 日曜日: 8時00分～13時30分, 17時00分～21時00分",080-5722-7042,https://instagram.com/manocamino?igshid=YmMyMTA2M2Y=,価格情報なし,"サンドイッチ店, カフェ, レストラン, 飲食店, 観光スポット, 施設","サンドイッチ店です。評価4.7（30件のレビュー）。店内飲食, テイクアウトに対応。佐渡島にあります。",可,不可,可,可,可,可,真野,CID URL検索,2025-08-09 12:37:10
ChIJyTile19d818R-m9C4elYC6U,kaneto,日本、〒952-0014 新潟県佐渡市両津湊２１３−５,38.0783564,138.4366195,4.8,6,営業中,月曜日: 定休日; 火曜日: 17時00分～22時00分; 水曜日: 17時00分～22時00分; 木曜日: 17時00分～22時00分; 金曜日: 17時00分～22時00分; 土曜日: 17時00分～22時00分; 日曜日: 17時00分～22時00分,050-1722-0310,https://www.sadokaneto.com/,価格情報なし,"レストラン, 観光スポット, 飲食店, 施設",レストランです。評価4.8（6件のレビュー）。店内飲食に対応。佐渡島にあります。,不可,不可,可,不可,不可,可,両津,CID URL検索,2025-08-09 12:37:12
ChIJnbxikfZc818RmRdWLCEkEN4,いしはら寿し,日本、〒952-0011 新潟県佐渡市両津夷１９２−２,38.084212,138.43267369999998,4.2,303,営業中,"月曜日: 11時00分～14時00分, 17時00分～23時00分; 火曜日: 定休日; 水曜日: 11時00分～14時00分, 17時00分～23時00分; 木曜日: 11時00分～14時00分, 17時00分～23時00分; 金曜日: 11時00分～14時00分, 17時00分～23時00分; 土曜日: 11時00分～14時00分, 17時00分～23時00分; 日曜日: 11時00分～14時00分, 17時00分～23時00分",0259-27-2658,公式サイトなし,普通,"寿司店, 和食レストラン, レストラン, 飲食店, 観光スポット, 施設","寿司店です。評価4.2（303件のレビュー）。価格帯は普通です。店内飲食, テイクアウトに対応。佐渡島にあります。",可,不可,可,不可,可,可,両津,CID URL検索,2025-08-09 12:37:13
ChIJ79HznKBd818ROK0lB1_pY4U,八千夜,日本、〒952-0011 新潟県佐渡市両津夷２６１−２６６,38.084196399999996,138.4320474,4.1,11,営業中,月曜日: 定休日; 火曜日: 17時30分～22時30分; 水曜日: 17時30分～22時30分; 木曜日: 定休日; 金曜日: 17時30分～22時30分; 土曜日: 17時30分～22時30分; 日曜日: 17時30分～22時30分,0259-23-5056,公式サイトなし,価格情報なし,"レストラン, 観光スポット, 飲食店, 施設","レストランです。評価4.1（11件のレビュー）。店内飲食, テイクアウトに対応。佐渡島にあります。",可,不可,可,不可,不可,可,両津,CID URL検索,2025-08-09 12:37:15
ChIJn8eDpvNc818RUjRn3DSAKEk,焼肉九兵衛,日本、〒952-0011 新潟県佐渡市両津夷１４６,38.0876544,138.432321,4.1,31,営業中,月曜日: 17時00分～21時00分; 火曜日: 17時00分～21時00分; 水曜日: 17時00分～21時00分; 木曜日: 17時00分～21時00分; 金曜日: 17時00分～21時00分; 土曜日: 17時00分～21時00分; 日曜日: 17時00分～21時00分,0259-27-2169,公式サイトなし,価格情報なし,"和食レストラン, レストラン, 飲食店, 観光スポット, 施設",和食レストランです。評価4.1（31件のレビュー）。店内飲食に対応。佐渡島にあります。,不可,不可,可,不可,不可,可,両津,CID URL検索,2025-08-09 12:37:16
ChIJ9X9nYw9k818REl6XvD4RHUg,焼肉康,日本、〒952-1314 新潟県佐渡市河原田本町２２７−２,38.0014502,138.3186805,4.1,12,営業中,月曜日: 定休日; 火曜日: 17時30分～22時00分; 水曜日: 17時30分～22時00分; 木曜日: 17時30分～22時00分; 金曜日: 17時30分～22時00分; 土曜日: 17時30分～22時00分; 日曜日: 17時30分～22時00分,0259-52-5241,公式サイトなし,価格情報なし,"和食レストラン, レストラン, 飲食店, 観光スポット, 施設",和食レストランです。評価4.1（12件のレビュー）。店内飲食に対応。佐渡島にあります。,不可,不可,可,不可,不可,可,佐渡市内,CID URL検索,2025-08-09 12:37:18
ChIJkQsqWKFp818RPbbxBlvyzUA,万楽,日本、〒952-2133 新潟県佐渡市北狄１５６６,38.093072299999996,138.2523213,4.3,15,営業中,,0259-75-2851,公式サイトなし,価格情報なし,"和食レストラン, レストラン, 飲食店, 観光スポット, 施設",和食レストランです。評価4.3（15件のレビュー）。店内飲食に対応。佐渡島にあります。,不可,不可,可,不可,不可,可,佐渡市内,CID URL検索,2025-08-09 12:37:19
ChIJNxqqGoNh818RYrNvkz3FULI,焼肉の家,日本、〒952-0116 新潟県佐渡市新穂１５,38.0145239,138.4225869,3.8,5,営業中,月曜日: 定休日; 火曜日: 定休日; 水曜日: 17時00分～22時00分; 木曜日: 17時00分～22時00分; 金曜日: 17時00分～22時00分; 土曜日: 17時00分～22時00分; 日曜日: 17時00分～22時00分,0259-67-7714,https://www.instagram.com/yakiniku.house?utm_source=ig_web_button_share_sheet&igsh=ZDNlZDc0MzIxNw==,価格情報なし,"和食レストラン, レストラン, 飲食店, 観光スポット, 施設",和食レストランです。評価3.8（5件のレビュー）。店内飲食に対応。佐渡島にあります。,不可,不可,可,不可,不可,可,新穂,CID URL検索,2025-08-09 12:37:21
ChIJiSmQRBpk818R9PkKJ1zRi4M,牛角 佐和田店,日本、〒952-1325 新潟県佐渡市窪田6ｰ2 佐渡セントラルタウン 内,38.0054926,138.3146105,3.6,118,営業中,"月曜日: 17時00分～23時00分; 火曜日: 17時00分～23時00分; 水曜日: 17時00分～23時00分; 木曜日: 17時00分～23時00分; 金曜日: 17時00分～23時00分; 土曜日: 11時30分～15時00分, 17時00分～23時00分; 日曜日: 11時30分～15時00分, 17時00分～23時00分",0259-51-0029,https://map.reins.co.jp/gyukaku/detail/259510029,普通,"和食レストラン, レストラン, 観光スポット, 飲食店, 施設",和食レストランです。評価3.6（118件のレビュー）。価格帯は普通です。店内飲食に対応。佐渡島にあります。,不可,不可,可,不可,可,可,佐渡市内,CID URL検索,2025-08-09 12:37:22
ChIJB2XcYgZk818RbwdrI32GFq0,焼肉 多来福,日本、〒952-1324 新潟県佐渡市中原６８７−７,38.0014616,138.32384009999998,4.1,33,営業中,月曜日: 18時00分～10時00分; 火曜日: 18時00分～10時00分; 水曜日: 18時00分～10時00分; 木曜日: 18時00分～10時00分; 金曜日: 18時00分～10時00分; 土曜日: 18時00分～10時00分; 日曜日: 18時00分～10時00分,0259-57-2201,公式サイトなし,価格情報なし,"和食レストラン, レストラン, 飲食店, 観光スポット, 施設",和食レストランです。評価4.1（33件のレビュー）。店内飲食に対応。佐渡島にあります。,不可,不可,可,不可,不可,不可,佐渡市内,CID URL検索,2025-08-09 12:37:24
ChIJPwCuAEBe818RSHfIaihTNlg,蕎麦 茂左衛門,日本、〒952-0104 新潟県佐渡市新穂田野沢１６３−１,38.0362107,138.45781900000003,4.4,78,営業中,"月曜日: 11時30分～14時00分, 17時00分～21時00分; 火曜日: 11時30分～14時00分, 17時00分～21時00分; 水曜日: 11時30分～14時00分, 17時00分～21時00分; 木曜日: 11時30分～14時00分, 17時00分～21時00分; 金曜日: 11時30分～14時00分, 17時00分～21時00分; 土曜日: 11時30分～14時00分, 17時00分～21時00分; 日曜日: 定休日",0259-67-7972,https://sobamozem.com/,価格情報なし,"レストラン, 飲食店, 観光スポット, 施設",レストランです。評価4.4（78件のレビュー）。店内飲食に対応。佐渡島にあります。,不可,不可,可,不可,可,可,新穂,CID URL検索,2025-08-09 12:37:25
ChIJZTkwiIdd818RShAESBgI6v8,鉄板のみせ 拓,日本、〒952-0011 新潟県佐渡市両津夷２０７,38.083588899999995,138.4333313,4.6,15,営業中,,080-2193-0973,公式サイトなし,価格情報なし,"和食レストラン, レストラン, 飲食店, 観光スポット, 施設","和食レストランです。評価4.6（15件のレビュー）。店内飲食, テイクアウトに対応。佐渡島にあります。",可,不可,可,不可,不可,可,両津,CID URL検索,2025-08-09 12:37:26
ChIJi39EqA9k818Rnm9bI3FIrPs,海の見えるレストラン【らぶじゃん】,日本、〒952-1315 新潟県佐渡市河原田諏訪町２０８−１６,38.0009385,138.31680459999998,4.5,14,営業中,月曜日: 定休日; 火曜日: 17時00分～22時00分; 水曜日: 17時00分～22時00分; 木曜日: 17時00分～22時00分; 金曜日: 17時00分～22時00分; 土曜日: 17時00分～22時00分; 日曜日: 定休日,090-5198-8012,公式サイトなし,価格情報なし,"レストラン, 観光スポット, 飲食店, 施設","レストランです。評価4.5（14件のレビュー）。店内飲食, テイクアウトに対応。佐渡島にあります。",可,不可,可,不可,可,可,佐渡市内,CID URL検索,2025-08-09 12:37:28
ChIJAVv0dABd818RBv4cp5ndw4Q,星奈,日本、〒952-0011 新潟県佐渡市両津夷２６０−６,38.0828888,138.43327069999998,4,1,営業中,月曜日: 11時00分～15時00分; 火曜日: 定休日; 水曜日: 11時00分～15時00分; 木曜日: 11時00分～15時00分; 金曜日: 11時00分～15時00分; 土曜日: 定休日; 日曜日: 定休日,情報なし,公式サイトなし,価格情報なし,"レストラン, 飲食店, 観光スポット, 施設",レストランです。評価4（1件のレビュー）。店内飲食に対応。佐渡島にあります。,不可,不可,可,不可,可,不可,両津,CID URL検索,2025-08-09 12:37:29
ChIJs7YYqJ5h818Rp1YONynYjh8,四季菜割烹 伝,日本、〒952-0206 新潟県佐渡市畑野１２６−５,37.9861155,138.3935173,4.6,169,営業中,"月曜日: 11時30分～13時00分, 17時30分～21時30分; 火曜日: 11時30分～13時00分, 17時30分～21時30分; 水曜日: 11時30分～13時00分, 17時30分～21時30分; 木曜日: 11時30分～13時00分, 17時30分～21時30分; 金曜日: 11時30分～13時00分, 17時30分～21時30分; 土曜日: 17時30分～21時30分; 日曜日: 定休日",0259-67-7161,https://ja-jp.facebook.com/%E5%9B%9B%E5%AD%A3%E8%8F%9C%E5%89%B2%E7%83%B9-%E4%BC%9D-765455386910635/,普通,"和食レストラン, レストラン, 飲食店, 観光スポット, 施設",和食レストランです。評価4.6（169件のレビュー）。価格帯は普通です。店内飲食に対応。佐渡島にあります。,不可,不可,可,不可,可,可,畑野,CID URL検索,2025-08-09 12:37:31
ChIJV7DEeEBl818R5PtEDlDMx4U,オケサとオサケの店ＢＵＮＺＯ,日本、〒952-1557 新潟県佐渡市相川一町目３２ 天領通り,38.0318101,138.2414473,4.9,29,営業中,月曜日: 18時00分～1時00分; 火曜日: 18時00分～1時00分; 水曜日: 18時00分～1時00分; 木曜日: 定休日; 金曜日: 18時00分～1時00分; 土曜日: 18時00分～1時00分; 日曜日: 18時00分～1時00分,0259-74-2252,https://okesabunzo.com/,価格情報なし,"バー, 和食レストラン, レストラン, 飲食店, 観光スポット, 施設",バーです。評価4.9（29件のレビュー）。店内飲食に対応。佐渡島にあります。,不可,不可,可,不可,不可,不可,相川,CID URL検索,2025-08-09 12:37:32
ChIJJ2WOSQBd818RFrve3B_alR4,中国菜館 ファンタオ,日本、〒952-0028 新潟県佐渡市加茂歌代４７８,38.0819657,138.418409,3.5,13,営業中,"月曜日: 定休日; 火曜日: 11時30分～13時30分, 17時30分～19時30分; 水曜日: 11時30分～13時30分, 17時30分～19時30分; 木曜日: 11時30分～13時30分, 17時30分～19時30分; 金曜日: 11時30分～13時30分, 17時30分～19時30分; 土曜日: 11時30分～13時30分, 17時30分～19時30分; 日曜日: 11時30分～13時30分, 17時30分～19時30分",0259-23-2380,公式サイトなし,価格情報なし,"中華料理店, レストラン, 観光スポット, 飲食店, 施設",中華料理店です。評価3.5（13件のレビュー）。店内飲食に対応。佐渡島にあります。,不可,不可,可,不可,可,可,佐渡市内,CID URL検索,2025-08-09 12:37:34
ChIJAbqYds9d818RARn5RR8lVc0,麺処ときわ（ときわ丸船内食堂）,日本、〒952-0014 新潟県佐渡市両津湊３５３番地,38.0811843,138.438629,3.6,8,営業中,月曜日: 9時00分～18時30分; 火曜日: 9時00分～18時30分; 水曜日: 9時00分～18時30分; 木曜日: 9時00分～18時30分; 金曜日: 9時00分～18時30分; 土曜日: 9時00分～18時30分; 日曜日: 9時00分～18時30分,情報なし,https://www.sadokisen.co.jp/shop-restaurant/,価格情報なし,"テイクアウト, レストラン, 飲食店, 観光スポット, 施設","テイクアウトです。評価3.6（8件のレビュー）。店内飲食, テイクアウトに対応。佐渡島にあります。",可,不可,可,不可,可,不可,両津,CID URL検索,2025-08-09 12:37:35
ChIJqbxikfZc818RUsFYI3Z_Kic,スナックＦ,日本、〒952-0011 新潟県佐渡市両津夷１８４,38.084506399999995,138.4322269,4,3,営業中,,0259-67-7739,公式サイトなし,価格情報なし,"テイクアウト, レストラン, 飲食店, 観光スポット, 施設","テイクアウトです。評価4（3件のレビュー）。店内飲食, テイクアウトに対応。佐渡島にあります。",可,不可,可,不可,不可,不可,両津,CID URL検索,2025-08-09 12:37:36
ChIJHTm9MgJk818RJAAg_Fg4ZLM,ベースボーズ,日本、〒952-1323 新潟県佐渡市鍛冶町２１１６−２,38.0043347,138.3279463,4.1,50,営業中,"月曜日: 11時30分～14時00分, 18時00分～22時00分; 火曜日: 11時30分～14時00分, 18時00分～22時00分; 水曜日: 11時30分～14時00分, 18時00分～22時00分; 木曜日: 11時30分～14時00分, 18時00分～22時00分; 金曜日: 11時30分～14時00分, 18時00分～22時00分; 土曜日: 11時30分～14時00分, 18時00分～22時00分; 日曜日: 11時30分～14時00分, 18時00分～22時00分",0259-57-2345,公式サイトなし,手頃,"和食レストラン, レストラン, 飲食店, 観光スポット, 施設",和食レストランです。評価4.1（50件のレビュー）。価格帯は手頃です。店内飲食に対応。佐渡島にあります。,不可,不可,可,不可,可,可,佐渡市内,CID URL検索,2025-08-09 12:37:38
ChIJkeLeIadl818RccONazyCwJc,海の見える海鮮居酒屋【幸之助】,日本、〒952-1315 新潟県佐渡市河原田諏訪町２０８−１６,38.000815599999996,138.31677209999998,3.5,8,営業中,月曜日: 定休日; 火曜日: 6時00分～22時00分; 水曜日: 6時00分～22時00分; 木曜日: 6時00分～22時00分; 金曜日: 6時00分～22時00分; 土曜日: 6時00分～22時00分; 日曜日: 定休日,090-7414-0573,公式サイトなし,価格情報なし,"和食レストラン, レストラン, 飲食店, 観光スポット, 施設",和食レストランです。評価3.5（8件のレビュー）。店内飲食に対応。佐渡島にあります。,不可,不可,可,不可,不可,可,佐渡市内,CID URL検索,2025-08-09 12:37:40
ChIJA9IVESZl818RKkRCU-dDC30,いわみ亭,日本、〒952-1324 新潟県佐渡市中原３２０−２,38.0045314,138.3170573,4.1,117,営業中,月曜日: 7時30分～16時00分; 火曜日: 7時30分～16時00分; 水曜日: 7時30分～16時00分; 木曜日: 定休日; 金曜日: 7時30分～16時00分; 土曜日: 7時30分～16時00分; 日曜日: 7時30分～16時00分,0259-58-7487,公式サイトなし,価格情報なし,"和食レストラン, レストラン, 飲食店, 観光スポット, 施設",和食レストランです。評価4.1（117件のレビュー）。店内飲食に対応。佐渡島にあります。,不可,不可,可,可,可,可,佐渡市内,CID URL検索,2025-08-09 12:37:41
ChIJz_JLEw9k818R6dTI2HShTPM,割烹 松山,日本、〒952-1315 新潟県佐渡市河原田諏訪町２０４−２,38.001013300000004,138.3179243,4.2,64,営業中,,0259-52-3901,https://www.facebook.com/pages/%E5%89%B2%E7%83%B9-%E6%9D%BE%E5%B1%B1/202476086457557,手頃,"和食レストラン, レストラン, 飲食店, 観光スポット, 施設",和食レストランです。評価4.2（64件のレビュー）。価格帯は手頃です。店内飲食に対応。佐渡島にあります。,不可,不可,可,不可,可,可,佐渡市内,CID URL検索,2025-08-09 12:37:43
ChIJ_2E4tMVl818R_uD1tvCeRfE,おうちごはん マンマ クゥ,日本、〒952-1325 新潟県佐渡市窪田９８７,38.004872299999995,138.3116177,4.4,32,営業中,月曜日: 9時00分～16時00分; 火曜日: 9時00分～16時00分; 水曜日: 9時00分～16時00分; 木曜日: 9時00分～16時00分; 金曜日: 9時00分～16時00分; 土曜日: 定休日; 日曜日: 定休日,0259-67-7923,https://www.instagram.com/manma_cu/,価格情報なし,"テイクアウト, レストラン, 飲食店, 観光スポット, 施設","テイクアウトです。評価4.4（32件のレビュー）。店内飲食, テイクアウトに対応。佐渡島にあります。",可,不可,可,可,可,不可,佐渡市内,CID URL検索,2025-08-09 12:37:44
ChIJq6pOaxtk818R9z8JTHzyqoM,歌留多,日本、〒952-1324 新潟県佐渡市中原３４８,38.0056709,138.3184592,4.2,36,営業中,"月曜日: 定休日; 火曜日: 11時30分～13時30分, 17時30分～21時00分; 水曜日: 11時30分～13時30分, 17時30分～21時00分; 木曜日: 11時30分～13時30分, 17時30分～21時00分; 金曜日: 11時30分～13時30分, 17時30分～21時00分; 土曜日: 11時30分～13時30分, 17時30分～21時00分; 日曜日: 定休日",0259-52-2122,公式サイトなし,価格情報なし,"和食レストラン, レストラン, 飲食店, 観光スポット, 施設",和食レストランです。評価4.2（36件のレビュー）。店内飲食に対応。佐渡島にあります。,不可,不可,可,不可,可,可,佐渡市内,CID URL検索,2025-08-09 12:37:46
ChIJgdRVihpj818R4B8-RBfT7j4,長浜荘 魚道場,日本、〒952-0315 新潟県佐渡市大須１０２１−１,37.9417806,138.31011669999998,4.1,190,営業中,月曜日: 11時00分～13時30分; 火曜日: 11時00分～13時30分; 水曜日: 11時00分～13時30分; 木曜日: 11時00分～13時30分; 金曜日: 11時00分～13時30分; 土曜日: 11時00分～13時30分; 日曜日: 11時00分～13時30分,0259-55-2511,http://www.nagahama.skr.jp/,普通,"シーフードレストラン, レストラン, 飲食店, 観光スポット, 施設",シーフードレストランです。評価4.1（190件のレビュー）。価格帯は普通です。店内飲食に対応。佐渡島にあります。,不可,不可,可,不可,可,可,佐渡市内,CID URL検索,2025-08-09 12:37:47
ChIJfwz_wKtm818Ra1tBz9yAQi8,吉野家 佐渡佐和田店,日本、〒952-1306 新潟県佐渡市長木７６７−１,38.006178,138.33575470000002,3.5,281,営業中,月曜日: 7時00分～23時00分; 火曜日: 7時00分～23時00分; 水曜日: 7時00分～23時00分; 木曜日: 7時00分～23時00分; 金曜日: 7時00分～23時00分; 土曜日: 7時00分～23時00分; 日曜日: 7時00分～23時00分,0259-67-7728,https://stores.yoshinoya.com/yoshinoya/spot/detail?code=ysn_046937,手頃,"ファーストフード, テイクアウト, 和食レストラン, レストラン, 飲食店, 観光スポット, 施設","ファーストフードです。評価3.5（281件のレビュー）。価格帯は手頃です。店内飲食, テイクアウトに対応。佐渡島にあります。",可,不可,可,可,可,可,佐渡市内,CID URL検索,2025-08-09 12:37:48
ChIJkXnuakVc818R8hvYU4bzPEk,スタミナ道場みなと,日本、〒952-0014 新潟県佐渡市両津湊１３９−５,38.0809567,138.43622539999998,2,29,営業中,,0259-27-6935,公式サイトなし,価格情報なし,"和食レストラン, レストラン, 飲食店, 観光スポット, 施設",和食レストランです。評価2（29件のレビュー）。店内飲食に対応。佐渡島にあります。,不可,不可,可,不可,可,不可,両津,CID URL検索,2025-08-09 12:37:50
ChIJT8a-W3FZ818RPGMXM5VIlnk,しなしな屋,日本、〒952-3435 新潟県佐渡市両津大川６３４−１,38.080772499999995,138.5491707,4.3,16,営業中,,0259-29-2322,公式サイトなし,価格情報なし,"レストラン, 飲食店, 観光スポット, 施設",レストランです。評価4.3（16件のレビュー）。店内飲食に対応。佐渡島にあります。,不可,不可,可,不可,可,可,両津,CID URL検索,2025-08-09 12:37:51
ChIJIR8Ja_5c818R-M0thNE1zo0,讃岐うどん おけさ,日本、〒952-0021 新潟県佐渡市秋津１８−７,38.0792201,138.418579,3.7,89,営業中,"月曜日: 11時00分～14時00分; 火曜日: 11時00分～14時00分, 17時00分～21時00分; 水曜日: 11時00分～14時00分; 木曜日: 11時00分～14時00分, 17時00分～21時00分; 金曜日: 11時00分～14時00分, 17時00分～21時00分; 土曜日: 11時00分～14時00分, 17時00分～21時00分; 日曜日: 11時00分～14時00分, 17時00分～21時00分",0259-27-0015,https://www.visitsado.com/spot/detail0359/,普通,"和食レストラン, レストラン, 観光スポット, 飲食店, 施設",和食レストランです。評価3.7（89件のレビュー）。価格帯は普通です。店内飲食に対応。佐渡島にあります。,不可,不可,可,不可,可,可,佐渡市内,CID URL検索,2025-08-09 12:37:53
ChIJHUCRAFlc818RONqjXCtG2BA,すしの魚秀,日本、〒952-0014 新潟県佐渡市両津湊１３６,38.0807023,138.43647869999998,3.8,158,営業中,"月曜日: 8時00分～14時00分, 16時00分～19時00分; 火曜日: 8時00分～14時00分, 16時00分～19時00分; 水曜日: 定休日; 木曜日: 8時00分～14時00分, 16時00分～19時00分; 金曜日: 8時00分～14時00分, 16時00分～19時00分; 土曜日: 8時00分～14時00分, 16時00分～19時00分; 日曜日: 8時00分～14時00分, 16時00分～19時00分",0259-27-5610,https://sushi-uohide.com/,価格情報なし,"寿司店, シーフードレストラン, テイクアウト, 和食レストラン, レストラン, 飲食店, 観光スポット, 施設","寿司店です。評価3.8（158件のレビュー）。店内飲食, テイクアウトに対応。佐渡島にあります。",可,不可,可,不可,可,可,両津,CID URL検索,2025-08-09 12:37:54
ChIJtYC0bOld818RtM674M26pqw,麺や INABA,日本、〒952-0014 新潟県佐渡市両津湊１３０,38.0804482,138.4367355,3.7,40,営業中,月曜日: 11時00分～13時30分; 火曜日: 11時00分～13時30分; 水曜日: 定休日; 木曜日: 11時00分～13時30分; 金曜日: 11時00分～13時30分; 土曜日: 定休日; 日曜日: 定休日,情報なし,https://m.facebook.com/menyainaba/,価格情報なし,"ラーメン店, 和食レストラン, レストラン, 飲食店, 観光スポット, 施設",ラーメン店です。評価3.7（40件のレビュー）。店内飲食に対応。佐渡島にあります。,不可,不可,可,不可,可,不可,両津,CID URL検索,2025-08-09 12:37:56
ChIJU6Z2zgFk818RcuF2UQQmZ8Y,廻転寿司 佐渡弁慶 佐渡本店,日本、〒952-1307 新潟県佐渡市東大通８３３,38.0040325,138.3319297,4.2,1326,営業中,月曜日: 10時30分～21時00分; 火曜日: 定休日; 水曜日: 10時30分～21時00分; 木曜日: 10時30分～21時00分; 金曜日: 10時30分～21時00分; 土曜日: 10時30分～21時00分; 日曜日: 10時30分～21時00分,0259-52-3453,https://benkei-sado.gorp.jp/,普通,"寿司店, 和食レストラン, レストラン, 観光スポット, 飲食店, 施設","寿司店です。評価4.2（1326件のレビュー）。価格帯は普通です。店内飲食, テイクアウトに対応。佐渡島にあります。",可,不可,可,不可,可,可,佐渡市内,CID URL検索,2025-08-09 12:37:57
ChIJGydjjSVd818RHTglbPM5Ido,龍金,日本、〒952-0027 新潟県佐渡市長江５２６−３,38.075450499999995,138.4104305,4.4,7,営業中,月曜日: 10時00分～18時00分; 火曜日: 14時00分～18時00分; 水曜日: 14時00分～18時00分; 木曜日: 10時00分～18時00分; 金曜日: 定休日; 土曜日: 14時00分～18時00分; 日曜日: 14時00分～18時00分,090-5546-7833,公式サイトなし,価格情報なし,"レストラン, 観光スポット, 飲食店, 施設",レストランです。評価4.4（7件のレビュー）。テイクアウトに対応。佐渡島にあります。,可,不可,不可,不可,不可,不可,佐渡市内,CID URL検索,2025-08-09 12:37:59
ChIJuexk-Vhc818RZYxe1rc6-EE,きさらぎ 本店,日本、〒952-0027 新潟県佐渡市長江898番地7,38.074946499999996,138.4135928,4,33,営業中,月曜日: 定休日; 火曜日: 定休日; 水曜日: 12時00分～14時00分; 木曜日: 12時00分～14時00分; 金曜日: 12時00分～14時00分; 土曜日: 12時00分～14時00分; 日曜日: 12時00分～14時00分,0259-58-8083,公式サイトなし,普通,"和食レストラン, カフェ, レストラン, 飲食店, 観光スポット, 施設","和食レストランです。評価4（33件のレビュー）。価格帯は普通です。店内飲食, テイクアウトに対応。佐渡島にあります。",可,不可,可,不可,可,可,佐渡市内,CID URL検索,2025-08-09 12:38:00
ChIJR3_Hnrpd818RecQD7AhK0s4,あきつ丸,日本、〒952-0021 新潟県佐渡市秋津９７６−１,38.0650534,138.4220233,4.3,20,営業中,,090-2566-3420,https://sadogashima-oyster.studio.site/,価格情報なし,"レストラン, 観光スポット, 飲食店, 施設",レストランです。評価4.3（20件のレビュー）。店内飲食に対応。佐渡島にあります。,不可,不可,可,不可,不可,可,佐渡市内,CID URL検索,2025-08-09 12:38:02
ChIJ81r0YVFi818ReuAvY-NEgqI,La Barque de Dionysos,日本、〒952-0318 新潟県佐渡市真野新町３２７−１,37.9644105,138.344235,4,24,営業中,月曜日: 定休日; 火曜日: 定休日; 水曜日: 定休日; 木曜日: 19時00分～22時00分; 金曜日: 19時00分～22時00分; 土曜日: 19時00分～22時00分; 日曜日: 定休日,情報なし,https://instagram.com/labarquededionysos?r=nametag,価格情報なし,"レストラン, バー, 飲食店, 観光スポット, 施設",レストランです。評価4（24件のレビュー）。店内飲食に対応。佐渡島にあります。,不可,不可,可,不可,不可,可,真野,CID URL検索,2025-08-09 12:38:03
ChIJTXgUKdhd818RZQMGl3FJ2AI,進栄,日本、〒952-3421 新潟県佐渡市吾潟２４４７,38.052262,138.446537,4,12,営業中,,0259-27-7844,公式サイトなし,価格情報なし,"和食レストラン, レストラン, 観光スポット, 飲食店, 施設",和食レストランです。評価4（12件のレビュー）。店内飲食に対応。佐渡島にあります。,不可,不可,可,不可,不可,不可,佐渡市内,CID URL検索,2025-08-09 12:38:05
ChIJtwXYBQ9k818RUR__Z7pIHFQ,やきにく屋 赤ちょうちん 河原田諏訪町,日本、〒952-1315 新潟県佐渡市河原田諏訪町２０８−８２,38.000992000000004,138.316648,3.6,164,営業中,"月曜日: 11時00分～13時30分, 17時00分～20時30分; 火曜日: 定休日; 水曜日: 11時00分～13時30分, 17時00分～20時30分; 木曜日: 11時00分～13時30分, 17時00分～20時30分; 金曜日: 11時00分～13時30分, 17時00分～20時30分; 土曜日: 11時00分～13時30分, 17時00分～20時30分; 日曜日: 11時00分～13時30分, 17時00分～20時30分",0259-52-2220,公式サイトなし,普通,"和食レストラン, レストラン, 飲食店, 観光スポット, 施設",和食レストランです。評価3.6（164件のレビュー）。価格帯は普通です。店内飲食に対応。佐渡島にあります。,不可,不可,可,不可,可,可,佐渡市内,CID URL検索,2025-08-09 12:38:06
ChIJpcqAxNBm818RP7Y_xJ329ME,のがた,日本、〒952-1209 新潟県佐渡市千種９９１−２,38.021966,138.362841,4.2,56,営業中,月曜日: 17時00分～23時00分; 火曜日: 17時00分～23時00分; 水曜日: 17時00分～23時00分; 木曜日: 17時00分～23時00分; 金曜日: 17時00分～23時00分; 土曜日: 17時00分～23時00分; 日曜日: 定休日,0259-63-4092,公式サイトなし,価格情報なし,"和食レストラン, レストラン, 観光スポット, 飲食店, 施設",和食レストランです。評価4.2（56件のレビュー）。店内飲食に対応。佐渡島にあります。,不可,不可,可,不可,不可,不可,佐渡市内,CID URL検索,2025-08-09 12:38:08
ChIJSU-2otFm818RXrx2v8qCjyc,食い処 ひきの,日本、〒952-1209 新潟県佐渡市千種９４６−１,38.0200388,138.36267569999998,3.8,118,営業中,月曜日: 17時30分～22時30分; 火曜日: 17時30分～22時30分; 水曜日: 17時30分～22時30分; 木曜日: 17時30分～22時30分; 金曜日: 17時30分～22時30分; 土曜日: 17時30分～22時30分; 日曜日: 17時30分～22時30分,0259-67-7885,公式サイトなし,普通,"和食レストラン, シーフードレストラン, レストラン, 飲食店, 観光スポット, 施設",和食レストランです。評価3.8（118件のレビュー）。価格帯は普通です。店内飲食に対応。佐渡島にあります。,不可,不可,可,不可,可,可,佐渡市内,CID URL検索,2025-08-09 12:38:09
ChIJ--t1-0xi818RYi0QioHQkbw,ながい,日本、〒952-0312 新潟県佐渡市吉岡９２４−１１,37.9687476,138.34797350000002,4.4,24,営業中,"月曜日: 11時30分～14時00分, 17時00分～22時00分; 火曜日: 11時30分～14時00分, 17時00分～22時00分; 水曜日: 11時30分～14時00分, 17時00分～22時00分; 木曜日: 11時30分～14時00分, 17時00分～22時00分; 金曜日: 11時30分～14時00分, 17時00分～22時00分; 土曜日: 11時30分～14時00分, 17時00分～22時00分; 日曜日: 定休日",0259-55-2055,公式サイトなし,価格情報なし,"寿司店, 和食レストラン, レストラン, 観光スポット, 飲食店, 施設",寿司店です。評価4.4（24件のレビュー）。店内飲食に対応。佐渡島にあります。,不可,不可,可,不可,可,不可,佐渡市内,CID URL検索,2025-08-09 12:38:11
ChIJtwXYBQ9k818RUR__Z7pIHFQ,やきにく屋 赤ちょうちん 河原田諏訪町,日本、〒952-1315 新潟県佐渡市河原田諏訪町２０８−８２,38.000992000000004,138.316648,3.6,164,営業中,"月曜日: 11時00分～13時30分, 17時00分～20時30分; 火曜日: 定休日; 水曜日: 11時00分～13時30分, 17時00分～20時30分; 木曜日: 11時00分～13時30分, 17時00分～20時30分; 金曜日: 11時00分～13時30分, 17時00分～20時30分; 土曜日: 11時00分～13時30分, 17時00分～20時30分; 日曜日: 11時00分～13時30分, 17時00分～20時30分",0259-52-2220,公式サイトなし,普通,"和食レストラン, レストラン, 飲食店, 観光スポット, 施設",和食レストランです。評価3.6（164件のレビュー）。価格帯は普通です。店内飲食に対応。佐渡島にあります。,不可,不可,可,不可,可,可,佐渡市内,CID URL検索,2025-08-09 12:38:12
ChIJH2-NdZ9h818RCD4hLd3cjRA,和食Dining中堀亭,日本、〒952-0206 新潟県佐渡市畑野甲５６３−１,37.988751900000004,138.39582560000002,4.3,127,営業中,"月曜日: 定休日; 火曜日: 11時30分～13時30分, 17時30分～23時00分; 水曜日: 11時30分～13時30分, 17時30分～23時00分; 木曜日: 11時30分～13時30分, 17時30分～23時00分; 金曜日: 11時30分～13時30分, 17時30分～23時00分; 土曜日: 11時30分～13時30分, 17時30分～23時00分; 日曜日: 17時30分～23時00分",0259-66-2029,公式サイトなし,手頃,"和食レストラン, レストラン, 飲食店, 観光スポット, 施設","和食レストランです。評価4.3（127件のレビュー）。価格帯は手頃です。店内飲食, テイクアウトに対応。佐渡島にあります。",可,不可,可,不可,可,可,畑野,CID URL検索,2025-08-09 12:38:14
ChIJT6qtagBn818RWGsH52s-q_8,されどおにぎり 金井店,日本、〒952-1209 新潟県佐渡市千種９８−４,38.0178094,138.3640154,3.8,10,営業中,月曜日: 7時30分～16時30分; 火曜日: 7時30分～16時30分; 水曜日: 7時30分～16時30分; 木曜日: 7時30分～16時30分; 金曜日: 7時30分～16時30分; 土曜日: 7時30分～16時30分; 日曜日: 7時30分～16時30分,050-8883-0806,https://saredoonigiri.com/,価格情報なし,"ファーストフード, 店舗, レストラン, 飲食店, 観光スポット, 施設","ファーストフードです。評価3.8（10件のレビュー）。店内飲食, テイクアウト, デリバリーに対応。佐渡島にあります。",可,可,可,可,可,不可,佐渡市内,CID URL検索,2025-08-09 12:38:15
ChIJEUIxvOhp818Rdhml3yPOvIQ,海小屋camping style cafe & restaurant & Vacation Rental,日本、〒952-2135 新潟県佐渡市達者５０９,38.077866,138.2485179,4.6,78,営業中,月曜日: 11時30分～15時00分; 火曜日: 11時30分～15時00分; 水曜日: 11時30分～15時00分; 木曜日: 11時30分～15時00分; 金曜日: 11時30分～15時00分; 土曜日: 11時30分～15時00分; 日曜日: 11時30分～15時00分,0259-67-7380,https://ask1701.wixsite.com/umikoya,価格情報なし,"レストラン, 観光スポット, 飲食店, 施設","レストランです。評価4.6（78件のレビュー）。店内飲食, テイクアウトに対応。佐渡島にあります。",可,不可,可,不可,可,不可,佐渡市内,CID URL検索,2025-08-09 12:38:17
ChIJxzmjY6Fp818RwogrdH_9Ehk,食堂 尖閣湾,日本、〒952-2133 新潟県佐渡市北狄１５６４−３,38.093556299999996,138.2514526,3.6,43,営業中,月曜日: 9時00分～14時00分; 火曜日: 定休日; 水曜日: 9時00分～14時00分; 木曜日: 9時00分～14時00分; 金曜日: 9時00分～14時00分; 土曜日: 9時00分～14時00分; 日曜日: 9時00分～14時00分,0259-75-2428,公式サイトなし,価格情報なし,"レストラン, 飲食店, 観光スポット, 施設",レストランです。評価3.6（43件のレビュー）。店内飲食に対応。佐渡島にあります。,不可,不可,可,不可,可,不可,佐渡市内,CID URL検索,2025-08-09 12:38:18
ChIJd5uyF8qH9F8Rxii3fxS2La0,魚留,日本、〒952-0604 新潟県佐渡市小木町６９７,37.8174512,138.2769677,4.4,16,営業中,月曜日: 定休日; 火曜日: 17時00分～22時00分; 水曜日: 17時00分～22時00分; 木曜日: 17時00分～22時00分; 金曜日: 17時00分～22時00分; 土曜日: 17時00分～22時00分; 日曜日: 17時00分～22時00分,050-8885-3404,公式サイトなし,価格情報なし,"寿司店, 和食レストラン, レストラン, 観光スポット, 飲食店, 施設",寿司店です。評価4.4（16件のレビュー）。店内飲食に対応。佐渡島にあります。,不可,不可,可,不可,不可,不可,小木,CID URL検索,2025-08-09 12:38:20
ChIJX2fmufVi818RnRKQyTaZM14,お食事処 夕鶴,日本、〒952-0313 新潟県佐渡市真野６５５,37.954599099999996,138.3466851,3.9,132,営業中,月曜日: 11時00分～15時00分; 火曜日: 11時00分～15時00分; 水曜日: 11時00分～15時00分; 木曜日: 11時00分～15時00分; 金曜日: 11時00分～15時00分; 土曜日: 11時00分～15時00分; 日曜日: 11時00分～15時00分,0259-55-2525,https://www.instagram.com/sado_rekiden/,手頃,"レストラン, シーフードレストラン, 和食レストラン, 飲食店, 観光スポット, 施設","レストランです。評価3.9（132件のレビュー）。価格帯は手頃です。店内飲食, テイクアウトに対応。佐渡島にあります。",可,不可,可,不可,可,不可,真野,CID URL検索,2025-08-09 12:38:21
ChIJ90JHvHpl818RcqvpNe2lzZA,古民家空間 京町亭,日本、〒952-1545 新潟県佐渡市相川八百屋町１３,38.0344768,138.2412441,4.2,77,営業中,月曜日: 11時30分～14時00分; 火曜日: 定休日; 水曜日: 定休日; 木曜日: 11時30分～14時00分; 金曜日: 11時30分～14時00分; 土曜日: 11時30分～14時00分; 日曜日: 11時30分～14時00分,0259-67-7538,http://kyoumachi.xsrv.jp/,普通,"レストラン, 観光スポット, 飲食店, 施設","レストランです。評価4.2（77件のレビュー）。価格帯は普通です。店内飲食, テイクアウトに対応。佐渡島にあります。",可,不可,可,不可,可,可,相川,CID URL検索,2025-08-09 12:38:22
ChIJnQD3XVtv818RWGg8vuxstp8,佐渡金山ラーメン茶屋,日本、〒952-0000 新潟県佐渡市奈良町,38.0381528,138.25363560000002,3.6,49,営業中,月曜日: 10時00分～15時00分; 火曜日: 10時00分～15時00分; 水曜日: 10時00分～15時00分; 木曜日: 10時00分～15時00分; 金曜日: 10時00分～15時00分; 土曜日: 10時00分～15時00分; 日曜日: 10時00分～15時00分,0259-74-0201,https://www.1st-innovation.jp/ramennkaido/wp/,価格情報なし,"ラーメン店, 和食レストラン, レストラン, 飲食店, 観光スポット, 施設",ラーメン店です。評価3.6（49件のレビュー）。店内飲食に対応。佐渡島にあります。,不可,不可,可,不可,不可,不可,佐渡市内,CID URL検索,2025-08-09 12:38:24
ChIJEyEyO_Rl818RtM5mJO-JaG8,そば処 與左エ門（よざえもん）〜yozaemon〜,日本、〒952-1523 新潟県佐渡市相川新五郎町１１,38.0354427,138.2470597,4.1,30,営業中,月曜日: 定休日; 火曜日: 定休日; 水曜日: 定休日; 木曜日: 定休日; 金曜日: 定休日; 土曜日: 11時00分～14時30分; 日曜日: 11時00分～14時30分,090-7832-5806,http://yozaemon27.xsrv.jp/wordpress/,価格情報なし,"レストラン, 飲食店, 観光スポット, 施設",レストランです。評価4.1（30件のレビュー）。店内飲食に対応。佐渡島にあります。,不可,不可,可,不可,可,不可,相川,CID URL検索,2025-08-09 12:38:25
ChIJlaEMaotl818RMIyuYzJJ9JU,銀寿司,日本、〒952-1548 新潟県佐渡市相川羽田町６５,38.032677899999996,138.24147879999998,4.4,150,営業中,"月曜日: 定休日; 火曜日: 11時30分～14時00分, 17時00分～22時00分; 水曜日: 11時30分～14時00分, 17時00分～22時00分; 木曜日: 12時30分～14時00分, 17時00分～22時00分; 金曜日: 11時30分～14時00分, 17時00分～22時00分; 土曜日: 11時30分～14時00分, 17時00分～22時00分; 日曜日: 11時30分～14時00分, 17時00分～22時00分",0259-74-3911,https://www.visitsado.com/spot/detail0286/,普通,"寿司店, 和食レストラン, レストラン, 飲食店, 観光スポット, 施設","寿司店です。評価4.4（150件のレビュー）。価格帯は普通です。店内飲食, テイクアウトに対応。佐渡島にあります。",可,不可,可,不可,可,可,相川,CID URL検索,2025-08-09 12:38:27
ChIJQeOxEYtl818RaM6_I4E2xqw,ひのき,日本、〒952-1548 新潟県佐渡市相川羽田町７４−４,38.032677899999996,138.2403029,5,16,営業中,月曜日: 17時00分～22時00分; 火曜日: 定休日; 水曜日: 17時00分～22時00分; 木曜日: 17時00分～22時00分; 金曜日: 17時00分～22時00分; 土曜日: 17時00分～22時00分; 日曜日: 17時00分～22時00分,080-2531-8589,公式サイトなし,価格情報なし,"和食レストラン, レストラン, 飲食店, 観光スポット, 施設",和食レストランです。評価5（16件のレビュー）。店内飲食に対応。佐渡島にあります。,不可,不可,可,不可,不可,可,相川,CID URL検索,2025-08-09 12:38:28
ChIJS2wiQ4tl818R1VtLsRsvEXo,磯の家,日本、〒952-1547 新潟県佐渡市相川江戸沢町１６,38.032498,138.24203,3.6,106,営業中,月曜日: 11時00分～19時00分; 火曜日: 11時00分～19時00分; 水曜日: 11時00分～19時00分; 木曜日: 11時00分～13時00分; 金曜日: 11時00分～19時00分; 土曜日: 11時00分～19時00分; 日曜日: 11時00分～19時00分,0259-74-2213,公式サイトなし,普通,"レストラン, 飲食店, 観光スポット, 施設",レストランです。評価3.6（106件のレビュー）。価格帯は普通です。店内飲食に対応。佐渡島にあります。,不可,不可,可,不可,可,可,相川,CID URL検索,2025-08-09 12:38:30
ChIJpbhHZItl818RCZG-KYRz1XE,板前の店 竹屋,日本、〒952-1557 新潟県佐渡市相川一町目５−３,38.032114,138.241694,4.4,114,営業中,"月曜日: 11時00分～13時30分, 18時00分～20時30分; 火曜日: 11時00分～13時30分, 18時00分～20時30分; 水曜日: 11時00分～13時30分, 18時00分～20時30分; 木曜日: 定休日; 金曜日: 11時00分～13時30分, 18時00分～20時30分; 土曜日: 11時00分～13時30分, 18時00分～20時30分; 日曜日: 11時00分～13時30分",0259-74-3328,https://www.facebook.com/pages/category/Interest/%E4%BD%90%E6%B8%A1%E3%83%B6%E5%B3%B6-%E6%9D%BF%E5%89%8D%E3%81%AE%E5%BA%97%E7%AB%B9%E5%B1%8B-276886229859791/,普通,"和食レストラン, レストラン, 飲食店, 観光スポット, 施設","和食レストランです。評価4.4（114件のレビュー）。価格帯は普通です。店内飲食, テイクアウトに対応。佐渡島にあります。",可,不可,可,不可,可,可,相川,CID URL検索,2025-08-09 12:38:31
ChIJp5XG95hg818RHVpMYq8UlfY,レストラン デビンコ へんじんもっこ,日本、〒952-0102 新潟県佐渡市新穂青木７４９−３,38.023288,138.431187,4.5,112,営業中,"月曜日: 定休日; 火曜日: 定休日; 水曜日: 17時00分～21時00分; 木曜日: 11時00分～14時00分, 17時00分～21時00分; 金曜日: 11時00分～14時00分, 17時00分～21時00分; 土曜日: 11時00分～14時00分, 17時00分～21時00分; 日曜日: 11時00分～14時00分, 17時00分～21時00分",0259-58-7027,https://m.facebook.com/devinco.co.jp/,普通,"イタリアンレストラン, ピザ店, レストラン, 観光スポット, 飲食店, 施設","イタリアンレストランです。評価4.5（112件のレビュー）。価格帯は普通です。店内飲食, テイクアウトに対応。佐渡島にあります。",可,不可,可,不可,可,可,新穂,CID URL検索,2025-08-09 12:38:33
ChIJsdmAv0Nj818RKQkY7J92-wM,おけさ横丁,日本、〒952-1311 新潟県佐渡市八幡２０４３,37.986655299999995,138.3453345,4.2,37,営業中,月曜日: 19時00分～23時00分; 火曜日: 19時00分～23時00分; 水曜日: 19時00分～23時00分; 木曜日: 19時00分～23時00分; 金曜日: 19時00分～23時00分; 土曜日: 19時00分～23時00分; 日曜日: 19時00分～23時00分,情報なし,http://www.yahatakan.com/index.shtml,普通,"和食レストラン, レストラン, 飲食店, 観光スポット, 施設",和食レストランです。評価4.2（37件のレビュー）。価格帯は普通です。店内飲食に対応。佐渡島にあります。,不可,不可,可,不可,不可,可,佐渡市内,CID URL検索,2025-08-09 12:38:34
ChIJRV3xycSG9F8ROZJqtYbRZKU,炭火焼酒場 灯,日本、〒952-0512 新潟県佐渡市羽茂大橋１６３３−３,37.828831199999996,138.30682339999998,4.5,43,営業中,月曜日: 18時00分～22時00分; 火曜日: 18時00分～22時00分; 水曜日: 定休日; 木曜日: 18時00分～22時00分; 金曜日: 18時00分～1時00分; 土曜日: 18時00分～1時00分; 日曜日: 18時00分～22時00分,0259-88-3295,公式サイトなし,普通,"和食レストラン, レストラン, 飲食店, 観光スポット, 施設","和食レストランです。評価4.5（43件のレビュー）。価格帯は普通です。店内飲食, テイクアウトに対応。佐渡島にあります。",可,不可,可,不可,不可,可,羽茂,CID URL検索,2025-08-09 12:38:36
ChIJl9fGXwVk818Rwv-35oKHE8A,龍の隠れ家,日本、〒952-1315 新潟県佐渡市河原田諏訪町３４ ホクセツハイツ,38.0026375,138.31713209999998,4.4,31,営業中,月曜日: 17時00分～0時00分; 火曜日: 17時00分～0時00分; 水曜日: 17時00分～0時00分; 木曜日: 17時00分～0時00分; 金曜日: 17時00分～0時00分; 土曜日: 17時00分～0時00分; 日曜日: 17時00分～0時00分,0259-67-7616,公式サイトなし,価格情報なし,"和食レストラン, レストラン, 観光スポット, 飲食店, 施設",和食レストランです。評価4.4（31件のレビュー）。店内飲食に対応。佐渡島にあります。,不可,不可,可,不可,不可,可,佐渡市内,CID URL検索,2025-08-09 12:38:37
ChIJQXpLYoxl818RdhYy8GsMYWA,割烹 中庄,日本、〒952-1558 新潟県佐渡市相川二町目１,38.03105,138.2418429,3.8,49,営業中,"月曜日: 11時30分～14時00分, 17時30分～20時30分; 火曜日: 11時30分～14時00分, 17時30分～20時30分; 水曜日: 11時30分～14時00分, 17時30分～20時30分; 木曜日: 11時30分～14時00分, 17時30分～20時30分; 金曜日: 11時30分～14時00分, 17時30分～20時30分; 土曜日: 11時30分～14時00分, 17時30分～20時30分; 日曜日: 定休日",0259-74-3901,https://www.visitsado.com/spot/detail0283/,普通,"和食レストラン, レストラン, 飲食店, 観光スポット, 施設","和食レストランです。評価3.8（49件のレビュー）。価格帯は普通です。店内飲食, テイクアウトに対応。佐渡島にあります。",可,不可,可,不可,可,可,相川,CID URL検索,2025-08-09 12:38:38
ChIJlYp2OwNl818RA89AIrqmWYE,ラーメン関口 佐渡本店,日本、〒952-1646 新潟県佐渡市相川大浦７９６,38.009837399999995,138.2332635,3.3,55,営業中,"月曜日: 定休日; 火曜日: 定休日; 水曜日: 11時00分～14時00分, 17時00分～20時00分; 木曜日: 11時00分～14時00分, 17時00分～20時00分; 金曜日: 11時00分～14時00分, 17時00分～20時00分; 土曜日: 11時00分～14時00分, 17時00分～20時00分; 日曜日: 11時00分～14時00分, 17時00分～20時00分",情報なし,https://sekiguchi.studio.site/,価格情報なし,"ラーメン店, 和食レストラン, レストラン, 飲食店, 観光スポット, 施設",ラーメン店です。評価3.3（55件のレビュー）。店内飲食に対応。佐渡島にあります。,不可,不可,可,不可,可,不可,相川,CID URL検索,2025-08-09 12:38:40
ChIJS7r-iI5l818R0mJj7Zz5vCM,食事処 とみ食堂,日本、〒952-1566 新潟県佐渡市相川市町５−３,38.0288356,138.2401481,4.3,87,営業中,"月曜日: 11時00分～14時00分, 17時00分～19時00分; 火曜日: 11時00分～14時00分, 17時00分～19時00分; 水曜日: 11時00分～14時00分, 17時00分～19時00分; 木曜日: 11時00分～14時00分, 17時00分～19時00分; 金曜日: 11時00分～14時00分, 17時00分～19時00分; 土曜日: 11時00分～14時00分, 17時00分～19時00分; 日曜日: 定休日",0259-74-2747,公式サイトなし,手頃,"レストラン, 飲食店, 観光スポット, 施設",レストランです。評価4.3（87件のレビュー）。価格帯は手頃です。店内飲食に対応。佐渡島にあります。,不可,不可,可,不可,可,可,相川,CID URL検索,2025-08-09 12:38:41
ChIJjeOcNYVl818RclOXt2miudQ,寿司 初,日本、〒952-1584 新潟県佐渡市相川下戸炭屋浜町１３１−２,38.0251011,138.2367736,4.5,61,営業中,"月曜日: 12時00分～14時00分, 17時00分～23時00分; 火曜日: 12時00分～14時00分, 17時00分～23時00分; 水曜日: 12時00分～14時00分, 17時00分～23時00分; 木曜日: 12時00分～14時00分, 17時00分～23時00分; 金曜日: 12時00分～14時00分, 17時00分～23時00分; 土曜日: 12時00分～14時00分, 17時00分～23時00分; 日曜日: 定休日",0259-74-0124,https://r397200.gorp.jp/,価格情報なし,"寿司店, 和食レストラン, レストラン, 飲食店, 観光スポット, 施設","寿司店です。評価4.5（61件のレビュー）。店内飲食, テイクアウト, デリバリーに対応。佐渡島にあります。",可,可,可,不可,可,可,相川,CID URL検索,2025-08-09 12:38:43
ChIJnRu9KgBl818R5g-2DZ8f-CE,媼と翁,日本、〒952-1571 新潟県佐渡市相川下戸浜町６２−６,38.0283735,138.2398098,4.4,8,営業中,"月曜日: 11時00分～14時00分, 19時00分～2時00分; 火曜日: 11時00分～14時00分, 19時00分～2時00分; 水曜日: 11時00分～14時00分, 19時00分～2時00分; 木曜日: 11時00分～14時00分, 19時00分～2時00分; 金曜日: 11時00分～14時00分, 19時00分～2時00分; 土曜日: 11時00分～14時00分, 19時00分～2時00分; 日曜日: 11時00分～14時00分, 19時00分～2時00分",0259-58-9392,公式サイトなし,価格情報なし,"和食レストラン, レストラン, 飲食店, 観光スポット, 施設",和食レストランです。評価4.4（8件のレビュー）。店内飲食に対応。佐渡島にあります。,不可,不可,可,不可,不可,不可,相川,CID URL検索,2025-08-09 12:38:44
ChIJ60LtBw9k818R2oE28euVYzg,しまちゃん,日本、〒952-1315 新潟県佐渡市河原田諏訪町２０８−８４,38.0010403,138.3164289,4.3,27,営業中,月曜日: 定休日; 火曜日: 19時00分～0時00分; 水曜日: 19時00分～0時00分; 木曜日: 19時00分～0時00分; 金曜日: 19時00分～0時00分; 土曜日: 19時00分～0時00分; 日曜日: 定休日,0259-52-5885,http://shimachan0725.com/,普通,"バー, テイクアウト, レストラン, 観光スポット, 飲食店, 施設","バーです。評価4.3（27件のレビュー）。価格帯は普通です。店内飲食, テイクアウト, デリバリーに対応。佐渡島にあります。",可,可,可,不可,不可,不可,佐渡市内,CID URL検索,2025-08-09 12:38:46
ChIJq7qRM0t7818RwepbLhyho8g,手打ちそば 徳平 稲鯨,日本、〒952-1643 新潟県佐渡市稲鯨１２６０−１,37.9754881,138.2378823,4.2,65,営業中,月曜日: 11時00分～14時00分; 火曜日: 11時00分～14時00分; 水曜日: 定休日; 木曜日: 11時00分～14時00分; 金曜日: 11時00分～14時00分; 土曜日: 11時00分～14時00分; 日曜日: 11時00分～14時00分,0259-76-2833,公式サイトなし,価格情報なし,"レストラン, 観光スポット, 飲食店, 施設",レストランです。評価4.2（65件のレビュー）。店内飲食に対応。佐渡島にあります。,不可,不可,可,不可,可,不可,佐渡市内,CID URL検索,2025-08-09 12:38:47
ChIJOcKetkx7818RqT5-zQhzYAk,すし角,日本、〒952-1643 新潟県佐渡市稲鯨１２１６−６,37.974367799999996,138.2400452,3.5,17,営業中,,0259-76-2022,公式サイトなし,高価,"寿司店, 和食レストラン, レストラン, 飲食店, 観光スポット, 施設",寿司店です。評価3.5（17件のレビュー）。価格帯は高価です。店内飲食に対応。佐渡島にあります。,不可,不可,可,不可,不可,可,佐渡市内,CID URL検索,2025-08-09 12:38:49
ChIJFz2aBwBd818RG86oalJSXG8,かき家 みうら 民泊 チャーター船 要予約,日本、〒952-0016 新潟県佐渡市原黒３２３−１８,38.07262490000001,138.441711,4.9,11,営業中,月曜日: 9時00分～21時30分; 火曜日: 9時00分～21時30分; 水曜日: 9時00分～21時30分; 木曜日: 9時00分～21時30分; 金曜日: 定休日; 土曜日: 9時00分～21時30分; 日曜日: 9時00分～21時30分,090-4097-2459,公式サイトなし,価格情報なし,"シーフードレストラン, レストラン, 飲食店, 観光スポット, 施設",シーフードレストランです。評価4.9（11件のレビュー）。店内飲食に対応。佐渡島にあります。,不可,不可,可,不可,不可,不可,佐渡市内,CID URL検索,2025-08-09 12:38:50
ChIJ_y7vUABd818ROu_VHGfdjlU,東栄館（居酒屋さとみ跡）,日本、〒952-0011 新潟県佐渡市両津夷１８７−１,38.0844756,138.4327022,,,営業中,"月曜日: 定休日; 火曜日: 11時30分～13時00分, 17時00分～21時00分; 水曜日: 11時30分～13時00分, 17時00分～21時00分; 木曜日: 11時30分～13時00分, 17時30分～21時00分; 金曜日: 11時30分～13時00分, 17時00分～21時00分; 土曜日: 11時30分～13時00分, 17時00分～21時00分; 日曜日: 定休日",090-3801-0006,https://www.instagram.com/itouhideo7?igsh,価格情報なし,"和食レストラン, レストラン, 飲食店, 観光スポット, 施設","和食レストランです。店内飲食, テイクアウトに対応。佐渡島にあります。",可,不可,可,不可,不可,不可,両津,CID URL検索,2025-08-09 12:38:52
ChIJLdCVIxtd818RmWLNLFGguj0,雪山食堂 しまの縁(えにし),日本、〒952-1208 新潟県佐渡市金井新保丙２,38.0765931,138.34987049999998,,,営業中,月曜日: 定休日; 火曜日: 定休日; 水曜日: 定休日; 木曜日: 定休日; 金曜日: 定休日; 土曜日: 10時00分～14時00分; 日曜日: 10時00分～14時00分,情報なし,http://www.sadoski.net/page008.html,価格情報なし,"レストラン, 観光スポット, 飲食店, 施設",レストランです。店内飲食に対応。佐渡島にあります。,不可,不可,可,不可,不可,不可,金井,CID URL検索,2025-08-09 12:38:53
ChIJ9QmsxWFn818RzN5F46CEKtg,樋口食堂,日本、〒952-1202 新潟県佐渡市吉井本郷５０２−５,38.0498579,138.3950765,4.1,92,営業中,"月曜日: 11時00分～14時00分, 17時00分～21時00分; 火曜日: 11時00分～14時00分, 17時00分～21時00分; 水曜日: 11時00分～14時00分, 17時00分～21時00分; 木曜日: 11時00分～14時00分, 17時00分～21時00分; 金曜日: 11時00分～14時00分, 17時00分～21時00分; 土曜日: 11時00分～14時00分, 17時00分～21時00分; 日曜日: 定休日",0259-63-6645,公式サイトなし,普通,"寿司店, 和食レストラン, レストラン, 飲食店, 観光スポット, 施設","寿司店です。評価4.1（92件のレビュー）。価格帯は普通です。店内飲食, テイクアウトに対応。佐渡島にあります。",可,不可,可,不可,可,可,佐渡市内,CID URL検索,2025-08-09 12:38:55
ChIJewTLhGpn818RCf4Xgohrdbg,椿屋 陶芸館 椿茶屋,日本、〒952-1207 新潟県佐渡市貝塚１１１１−１,38.0405841,138.3799689,3.9,101,営業中,月曜日: 11時00分～15時00分; 火曜日: 11時00分～15時00分; 水曜日: 11時00分～15時00分; 木曜日: 11時00分～15時00分; 金曜日: 11時00分～15時00分; 土曜日: 11時00分～15時00分; 日曜日: 11時00分～15時00分,0259-63-5555,http://sado-tsubakiya.com/?mode=f1,普通,"店舗, レストラン, 飲食店, 観光スポット, 施設",店舗です。評価3.9（101件のレビュー）。価格帯は普通です。店内飲食に対応。佐渡島にあります。,不可,不可,可,不可,可,不可,佐渡市内,CID URL検索,2025-08-09 12:38:56
ChIJD1VpUddm818R3UJ9MmZQ6Sc,割烹 石山,日本、〒952-1209 新潟県佐渡市千種９８２,38.0232107,138.3629507,4.4,80,営業中,"月曜日: 11時30分～13時15分, 17時30分～21時30分; 火曜日: 11時30分～13時15分, 17時30分～21時30分; 水曜日: 11時30分～13時15分, 17時30分～21時30分; 木曜日: 11時30分～13時15分, 17時30分～21時30分; 金曜日: 11時30分～13時15分, 17時30分～21時30分; 土曜日: 11時30分～13時15分, 17時30分～21時30分; 日曜日: 定休日",0259-63-2663,https://www.visitsado.com/spot/detail0298/,価格情報なし,"和食レストラン, レストラン, 飲食店, 観光スポット, 施設",和食レストランです。評価4.4（80件のレビュー）。店内飲食に対応。佐渡島にあります。,不可,不可,可,不可,可,可,佐渡市内,CID URL検索,2025-08-09 12:38:58
ChIJK8hlzdBm818R2kITGiqaGyY,司すし,日本、〒952-1209 新潟県佐渡市千種９７７−３,38.0221315,138.3638623,4.4,63,営業中,,0259-63-3918,公式サイトなし,普通,"寿司店, 和食レストラン, レストラン, 観光スポット, 飲食店, 施設","寿司店です。評価4.4（63件のレビュー）。価格帯は普通です。店内飲食, テイクアウトに対応。佐渡島にあります。",可,不可,可,不可,不可,可,佐渡市内,CID URL検索,2025-08-09 12:38:59
ChIJL4pGvdFm818RtKkJXTdzujo,駅馬車,日本、〒952-1209 新潟県佐渡市千種９４５−１,38.0198904,138.36251529999998,4.3,181,営業中,"月曜日: 定休日; 火曜日: 11時30分～13時30分, 17時30分～21時00分; 水曜日: 11時30分～13時30分, 17時30分～21時00分; 木曜日: 11時30分～13時30分, 17時30分～21時00分; 金曜日: 11時30分～13時30分, 17時30分～21時00分; 土曜日: 11時30分～13時30分, 17時30分～21時00分; 日曜日: 11時30分～13時30分, 17時30分～21時00分",0259-63-3222,https://www.ekibasha.com/,普通,"ステーキハウス, レストラン, 飲食店, 観光スポット, 施設",ステーキハウスです。評価4.3（181件のレビュー）。価格帯は普通です。店内飲食に対応。佐渡島にあります。,不可,不可,可,不可,可,可,佐渡市内,CID URL検索,2025-08-09 12:39:00
ChIJP6P9fSdn818RiwMBkdrqp78,居酒屋 銀,日本、〒952-1209 新潟県佐渡市千種８１−４,38.0205325,138.36341099999999,3.7,35,営業中,月曜日: 17時00分～0時00分; 火曜日: 17時00分～0時00分; 水曜日: 17時00分～0時00分; 木曜日: 17時00分～0時00分; 金曜日: 17時00分～0時00分; 土曜日: 17時00分～0時00分; 日曜日: 17時00分～0時00分,0259-63-4851,公式サイトなし,手頃,"和食レストラン, レストラン, 飲食店, 観光スポット, 施設",和食レストランです。評価3.7（35件のレビュー）。価格帯は手頃です。店内飲食に対応。佐渡島にあります。,不可,不可,可,不可,不可,可,佐渡市内,CID URL検索,2025-08-09 12:39:02
ChIJnQ1MdNFm818RjeK4h56RM0Y,こなもん屋 纏（まとい）,日本、〒952-1209 新潟県佐渡市千種８３−１,38.0201928,138.36365,3.9,19,営業中,,情報なし,https://matoisado.web.fc2.com/,価格情報なし,"テイクアウト, レストラン, 飲食店, 観光スポット, 施設",テイクアウトです。評価3.9（19件のレビュー）。テイクアウトに対応。佐渡島にあります。,可,不可,不可,不可,不可,不可,佐渡市内,CID URL検索,2025-08-09 12:39:03
ChIJgbSmH2Nn818RdvcKPaRbGd0,麺や 龍美,日本、〒952-1209 新潟県佐渡市千種８３−１,38.0201466,138.3634992,3.9,22,営業中,月曜日: 定休日; 火曜日: 定休日; 水曜日: 11時00分～14時00分; 木曜日: 11時00分～14時00分; 金曜日: 11時00分～14時00分; 土曜日: 11時00分～14時00分; 日曜日: 11時00分～14時00分,情報なし,公式サイトなし,価格情報なし,"ラーメン店, 和食レストラン, レストラン, 観光スポット, 飲食店, 施設",ラーメン店です。評価3.9（22件のレビュー）。店内飲食に対応。佐渡島にあります。,不可,不可,可,不可,可,不可,佐渡市内,CID URL検索,2025-08-09 12:39:05
ChIJQ3yCbgBn818RgNtpEAYNr6k,ちぐさ食堂,日本、〒952-1209 新潟県佐渡市千種８３,38.0201,138.363397,4.2,26,営業中,"月曜日: 11時30分～14時00分; 火曜日: 11時30分～14時00分; 水曜日: 11時30分～14時00分, 18時00分～21時30分; 木曜日: 定休日; 金曜日: 11時30分～14時00分, 18時00分～21時30分; 土曜日: 11時30分～14時00分, 18時00分～21時30分; 日曜日: 11時30分～14時00分, 18時00分～21時30分",0259-58-7410,https://airrsv.net/chigusashitang/calendar,価格情報なし,"レストラン, 飲食店, 観光スポット, 施設",レストランです。評価4.2（26件のレビュー）。店内飲食に対応。佐渡島にあります。,不可,不可,可,不可,可,可,佐渡市内,CID URL検索,2025-08-09 12:39:06
ChIJZTePi9Fm818R3pfgy95w05g,クッチーナ,日本、〒952-1209 新潟県佐渡市千種８８−１,38.0192332,138.3630125,3.7,93,営業中,"月曜日: 11時00分～14時00分, 17時30分～22時00分; 火曜日: 11時00分～14時00分, 17時30分～22時00分; 水曜日: 11時00分～14時00分, 17時30分～22時00分; 木曜日: 11時00分～14時00分, 17時30分～22時00分; 金曜日: 11時00分～14時00分, 17時30分～22時00分; 土曜日: 11時00分～14時00分, 17時30分～22時00分; 日曜日: 定休日",0259-67-7889,公式サイトなし,普通,"バー, イタリアンレストラン, レストラン, 観光スポット, 飲食店, 施設","バーです。評価3.7（93件のレビュー）。価格帯は普通です。店内飲食, テイクアウトに対応。佐渡島にあります。",可,不可,可,不可,不可,不可,佐渡市内,CID URL検索,2025-08-09 12:39:08
ChIJW5z-b75n818RiBKOGNr-VWY,かないサロン旦！,日本、〒952-1209 新潟県佐渡市千種１５３,38.0187625,138.36623459999998,4.5,2,営業中,月曜日: 定休日; 火曜日: 10時30分～16時00分; 水曜日: 10時30分～16時00分; 木曜日: 10時30分～16時00分; 金曜日: 10時30分～16時00分; 土曜日: 定休日; 日曜日: 定休日,080-5855-7081,https://note.com/tan153_3,価格情報なし,"テイクアウト, レストラン, 飲食店, 観光スポット, 施設",テイクアウトです。評価4.5（2件のレビュー）。店内飲食に対応。佐渡島にあります。,不可,不可,可,不可,可,不可,佐渡市内,CID URL検索,2025-08-09 12:39:09
ChIJMVmiiQFn818RUVmnj8SGolE,りょうこのギーザ(餃子),日本、〒952-1209 新潟県佐渡市千種９４−５,38.0183216,138.3636,4.5,8,営業中,月曜日: 12時00分～19時00分; 火曜日: 12時00分～19時00分; 水曜日: 12時00分～19時00分; 木曜日: 12時00分～19時00分; 金曜日: 12時00分～19時00分; 土曜日: 12時00分～19時00分; 日曜日: 12時00分～19時00分,090-8841-5909,公式サイトなし,価格情報なし,"テイクアウト, レストラン, 飲食店, 観光スポット, 施設",テイクアウトです。評価4.5（8件のレビュー）。テイクアウトに対応。佐渡島にあります。,可,不可,不可,不可,不可,不可,佐渡市内,CID URL検索,2025-08-09 12:39:11
ChIJ6frfcdJm818RlXsGryCxIgY,三代目ラーメン,日本、〒952-1209 新潟県佐渡市千種９８−４,38.0178222,138.3639974,3.8,143,営業中,"月曜日: 11時30分～14時00分, 17時00分～22時00分; 火曜日: 11時30分～14時00分, 17時00分～22時00分; 水曜日: 11時30分～14時00分, 17時00分～22時00分; 木曜日: 定休日; 金曜日: 11時30分～14時00分, 17時00分～22時00分; 土曜日: 11時30分～14時00分, 17時00分～22時00分; 日曜日: 11時30分～14時00分, 17時00分～22時00分",0259-63-6208,公式サイトなし,普通,"ラーメン店, 和食レストラン, レストラン, 飲食店, 観光スポット, 施設",ラーメン店です。評価3.8（143件のレビュー）。価格帯は普通です。店内飲食に対応。佐渡島にあります。,不可,不可,可,不可,可,可,佐渡市内,CID URL検索,2025-08-09 12:39:13
ChIJE3zgWc5l818R1no9pd_YNPM,山下食堂,日本、〒952-1314 新潟県佐渡市河原田本町３０−２,38.000997399999996,138.32154939999998,4.7,18,営業中,,0259-67-7554,https://www.instagram.com/yamashita_shokudo/,価格情報なし,"テイクアウト, レストラン, 観光スポット, 飲食店, 施設","テイクアウトです。評価4.7（18件のレビュー）。店内飲食, テイクアウトに対応。佐渡島にあります。",可,不可,可,不可,可,可,佐渡市内,CID URL検索,2025-08-09 12:39:14
ChIJR8n-pERj818RKEXlWnjKCmU,ｏｒｔｏｍａｒｅ(オルトマーレ),日本、〒952-0318 新潟県佐渡市真野新町４９８,37.9671998,138.3467451,4.6,26,営業中,月曜日: 定休日; 火曜日: 17時00分～22時00分; 水曜日: 17時00分～22時00分; 木曜日: 定休日; 金曜日: 17時00分～22時00分; 土曜日: 17時00分～22時00分; 日曜日: 17時00分～22時00分,0259-58-9302,https://www.instagram.com/ortomare_sado/,価格情報なし,"イタリアンレストラン, レストラン, 観光スポット, 飲食店, 施設",イタリアンレストランです。評価4.6（26件のレビュー）。店内飲食に対応。佐渡島にあります。,不可,不可,可,不可,可,可,真野,CID URL検索,2025-08-09 12:39:16
ChIJ-b0tqT6H9F8RahpsBw56Oj4,小木家,日本、〒952-0604 新潟県佐渡市小木町１９５０−７,37.8165695,138.28247539999998,3.4,214,営業中,月曜日: 9時00分～15時00分; 火曜日: 9時00分～15時00分; 水曜日: 9時00分～15時00分; 木曜日: 9時00分～15時00分; 金曜日: 9時00分～15時00分; 土曜日: 9時00分～15時00分; 日曜日: 9時00分～15時00分,0259-86-3666,http://sado-ogiya.com/,価格情報なし,"和食レストラン, 店舗, レストラン, 飲食店, 観光スポット, 施設",和食レストランです。評価3.4（214件のレビュー）。佐渡島にあります。,不可,不可,不可,不可,不可,不可,小木,CID URL検索,2025-08-09 12:39:17
ChIJd_0MzbVm818RD1qM6SNhqvw,すしや まるいし,日本、〒952-1212 新潟県佐渡市泉１０３０−１ 小又１０３１−１,38.0125544,138.34974810000003,4.1,862,営業中,"月曜日: 定休日; 火曜日: 11時00分～14時00分, 16時30分～20時00分; 水曜日: 11時00分～14時00分, 16時30分～20時00分; 木曜日: 定休日; 金曜日: 11時00分～14時00分, 16時30分～20時00分; 土曜日: 11時00分～14時00分, 16時30分～20時00分; 日曜日: 11時00分～14時00分, 16時30分～20時00分",0259-63-3066,https://sites.google.com/view/sushiyamaruishisado/%E3%83%9B%E3%83%BC%E3%83%A0,手頃,"寿司店, 和食レストラン, レストラン, 飲食店, 観光スポット, 施設","寿司店です。評価4.1（862件のレビュー）。価格帯は手頃です。店内飲食, テイクアウトに対応。佐渡島にあります。",可,不可,可,不可,可,可,佐渡市内,CID URL検索,2025-08-09 12:39:19
ChIJ0-9Z4alm818RdhAyVft6jdo,やじま 東大通店,日本、〒952-1307 新潟県佐渡市東大通８６６−１,38.0057371,138.3305503,3.9,156,営業中,"月曜日: 定休日; 火曜日: 11時00分～13時30分, 17時00分～22時30分; 水曜日: 11時00分～13時30分, 17時00分～22時30分; 木曜日: 11時00分～13時30分, 17時00分～22時30分; 金曜日: 11時00分～13時30分, 17時00分～22時30分; 土曜日: 11時00分～13時30分, 17時00分～22時30分; 日曜日: 11時00分～13時30分, 17時00分～22時30分",0259-52-1001,https://yajima.world/,普通,"和食レストラン, レストラン, 飲食店, 観光スポット, 施設","和食レストランです。評価3.9（156件のレビュー）。価格帯は普通です。店内飲食, テイクアウトに対応。佐渡島にあります。",可,不可,可,不可,可,可,佐渡市内,CID URL検索,2025-08-09 12:39:20
ChIJ0WWfkM1m818R0UmZ7EYlLjY,手打そば 徳平 中興,日本、〒952-1211 新潟県佐渡市中興３０８−７,38.0171025,138.36270199999998,3.7,60,営業中,月曜日: 11時00分～14時00分; 火曜日: 定休日; 水曜日: 11時00分～14時00分; 木曜日: 11時00分～14時00分; 金曜日: 11時00分～14時00分; 土曜日: 11時00分～14時00分; 日曜日: 11時00分～14時00分,0259-63-4823,公式サイトなし,普通,"レストラン, 飲食店, 観光スポット, 施設",レストランです。評価3.7（60件のレビュー）。価格帯は普通です。店内飲食に対応。佐渡島にあります。,不可,不可,可,不可,可,不可,佐渡市内,CID URL検索,2025-08-09 12:39:22
ChIJS5tbu9Jm818RlZu-F3bsHiU,割烹 一休,日本、〒952-1209 新潟県佐渡市千種３１１−１,38.0166521,138.3661096,4,50,営業中,月曜日: 定休日; 火曜日: 17時00分～21時00分; 水曜日: 17時00分～21時00分; 木曜日: 17時00分～21時00分; 金曜日: 17時00分～21時00分; 土曜日: 17時00分～21時00分; 日曜日: 定休日,0259-63-4019,公式サイトなし,普通,"和食レストラン, レストラン, 飲食店, 観光スポット, 施設",和食レストランです。評価4（50件のレビュー）。価格帯は普通です。店内飲食に対応。佐渡島にあります。,不可,不可,可,不可,不可,可,佐渡市内,CID URL検索,2025-08-09 12:39:23
ChIJFeVGh8Vm818RyKuHaiuUSds,中国料理 金華楼,日本、〒952-1211 新潟県佐渡市中興６７４−１,38.0164914,138.3608266,3.9,49,営業中,"月曜日: 11時30分～14時00分, 17時00分～21時00分; 火曜日: 11時30分～14時00分, 17時00分～21時00分; 水曜日: 定休日; 木曜日: 11時30分～14時00分, 17時00分～21時00分; 金曜日: 11時30分～14時00分, 17時00分～21時00分; 土曜日: 11時30分～14時00分, 17時00分～21時00分; 日曜日: 11時30分～14時00分, 17時00分～21時00分",0259-63-2323,公式サイトなし,普通,"中華料理店, レストラン, 飲食店, 観光スポット, 施設","中華料理店です。評価3.9（49件のレビュー）。価格帯は普通です。店内飲食, テイクアウトに対応。佐渡島にあります。",可,不可,可,不可,可,可,佐渡市内,CID URL検索,2025-08-09 12:39:25
ChIJqUtu7lKB9F8RbJ3_8sJubaA,T&M Bread Delivery SADO Island・マーカスのパン屋,日本、〒952-0504 新潟県佐渡市羽茂本郷６３４−１,37.846075899999995,138.3138887,4.5,70,営業中,月曜日: 定休日; 火曜日: 定休日; 水曜日: 定休日; 木曜日: 定休日; 金曜日: 8時00分～18時00分; 土曜日: 8時00分～18時00分; 日曜日: 定休日,090-3064-2880,https://www.instagram.com/tandmbreaddelivery/?hl=ja,普通,"パン・洋菓子店, サンドイッチ店, 店舗, レストラン, 飲食店, 観光スポット, 施設",パン・洋菓子店です。評価4.5（70件のレビュー）。価格帯は普通です。テイクアウトに対応。佐渡島にあります。,可,不可,不可,不可,不可,不可,羽茂,CID URL検索,2025-08-09 12:39:26
ChIJa_qDn_Jn818RmLigGOby1AI,麺処 若,日本、〒952-1212 新潟県佐渡市泉甲５６６−１,38.0135499,138.3541905,4,178,営業中,"月曜日: 11時00分～14時00分, 17時30分～20時30分; 火曜日: 11時00分～14時00分, 17時30分～20時30分; 水曜日: 11時00分～14時00分; 木曜日: 定休日; 金曜日: 11時00分～14時00分, 17時30分～20時30分; 土曜日: 11時00分～14時00分, 17時30分～20時30分; 日曜日: 11時00分～14時00分, 17時30分～20時30分",0259-67-7768,https://mendokoro-waka.com/,普通,"ラーメン店, 和食レストラン, レストラン, 飲食店, 観光スポット, 施設",ラーメン店です。評価4（178件のレビュー）。価格帯は普通です。店内飲食に対応。佐渡島にあります。,不可,不可,可,不可,可,可,佐渡市内,CID URL検索,2025-08-09 12:39:28
ChIJ3aLkLABn818RvIy_JE09x18,麺屋 成,日本、〒952-1212 新潟県佐渡市泉１００−１,38.013050299999996,138.35180359999998,4.3,35,営業中,"月曜日: 定休日; 火曜日: 11時00分～14時00分, 17時30分～20時00分; 水曜日: 11時00分～14時00分, 17時30分～20時00分; 木曜日: 11時00分～14時00分, 17時30分～20時00分; 金曜日: 11時00分～14時00分, 17時30分～20時00分; 土曜日: 11時00分～14時00分, 17時30分～20時00分; 日曜日: 11時00分～14時00分, 17時30分～20時00分",情報なし,https://www.instagram.com/menya_nari/,価格情報なし,"ラーメン店, 和食レストラン, レストラン, 観光スポット, 飲食店, 施設",ラーメン店です。評価4.3（35件のレビュー）。店内飲食に対応。佐渡島にあります。,不可,不可,可,不可,可,可,佐渡市内,CID URL検索,2025-08-09 12:39:29
ChIJp6aPdLFm818RYhLujY0vSB8,いちばんどり,日本、〒952-1212 新潟県佐渡市泉甲１２６９−１,38.011403,138.34304799999998,4.1,41,営業中,月曜日: 17時30分～22時00分; 火曜日: 定休日; 水曜日: 17時30分～22時00分; 木曜日: 17時30分～22時00分; 金曜日: 17時30分～22時00分; 土曜日: 17時30分～22時00分; 日曜日: 17時30分～22時00分,0259-61-1538,公式サイトなし,普通,"和食レストラン, レストラン, 飲食店, 観光スポット, 施設",和食レストランです。評価4.1（41件のレビュー）。価格帯は普通です。店内飲食に対応。佐渡島にあります。,不可,不可,可,不可,不可,可,佐渡市内,CID URL検索,2025-08-09 12:39:31
ChIJD-XmAK5m818Rm5nO1qs5UHY,はなまるうどん 佐渡佐和田店,日本、〒952-1302 新潟県佐渡市市野沢２７,38.0095635,138.3410092,3.7,223,営業中,月曜日: 11時00分～20時30分; 火曜日: 11時00分～20時30分; 水曜日: 11時00分～20時30分; 木曜日: 11時00分～20時30分; 金曜日: 11時00分～20時30分; 土曜日: 11時00分～20時30分; 日曜日: 11時00分～20時30分,0259-51-0870,https://stores.hanamaruudon.com/hanamaru/spot/detail?code=814,手頃,"ファーストフード, 和食レストラン, テイクアウト, レストラン, 飲食店, 観光スポット, 施設","ファーストフードです。評価3.7（223件のレビュー）。価格帯は手頃です。店内飲食, テイクアウトに対応。佐渡島にあります。",可,不可,可,不可,可,可,佐渡市内,CID URL検索,2025-08-09 12:39:32
ChIJL6roB65m818RDxFXQp3R558,ミスタードーナツ 佐渡佐和田ショップ,日本、〒952-1302 新潟県佐渡市市野沢２７,38.0093783,138.3406515,3.7,123,営業中,月曜日: 9時00分～21時00分; 火曜日: 9時00分～21時00分; 水曜日: 9時00分～21時00分; 木曜日: 9時00分～21時00分; 金曜日: 9時00分～21時00分; 土曜日: 9時00分～21時00分; 日曜日: 9時00分～21時00分,0259-57-1214,https://www.misterdonut.jp/,普通,"ファーストフード, テイクアウト, パン・洋菓子店, レストラン, 観光スポット, 店舗, 飲食店, 施設","ファーストフードです。評価3.7（123件のレビュー）。価格帯は普通です。店内飲食, テイクアウトに対応。佐渡島にあります。",可,不可,可,可,不可,不可,佐渡市内,CID URL検索,2025-08-09 12:39:34
ChIJzS_Z4K1m818R3iM85Lnbr0Q,チャイニーズレストラン 昴,日本、〒952-1302 新潟県佐渡市市野沢３３−２,38.0092579,138.3404454,4,127,営業中,"月曜日: 定休日; 火曜日: 11時00分～14時30分, 17時30分～20時30分; 水曜日: 11時00分～14時30分, 17時30分～20時30分; 木曜日: 11時00分～14時30分, 17時30分～20時30分; 金曜日: 11時00分～14時30分, 17時30分～20時30分; 土曜日: 11時00分～14時30分; 日曜日: 11時00分～14時30分, 17時30分～20時30分",0259-52-4520,http://www.sado-subaru.com/index.html,普通,"中華料理店, レストラン, 飲食店, 観光スポット, 施設","中華料理店です。評価4（127件のレビュー）。価格帯は普通です。店内飲食, テイクアウトに対応。佐渡島にあります。",可,不可,可,不可,可,可,佐渡市内,CID URL検索,2025-08-09 12:39:35
ChIJq6rWlBtk818R3cj3OoQhBsw,かえる食堂,日本、〒952-1324 新潟県佐渡市中原２０６−４,38.006934699999995,138.3165139,4.3,56,営業中,月曜日: 11時00分～14時30分; 火曜日: 11時00分～14時30分; 水曜日: 定休日; 木曜日: 11時00分～14時30分; 金曜日: 11時00分～14時30分; 土曜日: 11時00分～14時30分; 日曜日: 11時00分～14時30分,0259-67-7984,公式サイトなし,普通,"ラーメン店, 和食レストラン, レストラン, 飲食店, 観光スポット, 施設",ラーメン店です。評価4.3（56件のレビュー）。価格帯は普通です。店内飲食に対応。佐渡島にあります。,不可,不可,可,不可,可,可,佐渡市内,CID URL検索,2025-08-09 12:39:37
ChIJ333m7qtm818R20l7VEfEr0o,ほっともっと 佐渡佐和田店,日本、〒952-1306 新潟県佐渡市長木７６５,38.0064364,138.3360368,3.4,102,営業中,月曜日: 7時00分～23時00分; 火曜日: 7時00分～23時00分; 水曜日: 7時00分～23時00分; 木曜日: 7時00分～23時00分; 金曜日: 7時00分～23時00分; 土曜日: 7時00分～23時00分; 日曜日: 7時00分～23時00分,0259-51-4510,https://store.hottomotto.com/b/hottomotto/info/28061/,手頃,"デリバリー, ファーストフード, テイクアウト, 店舗, 和食レストラン, レストラン, 飲食店, 観光スポット, 施設","デリバリーです。評価3.4（102件のレビュー）。価格帯は手頃です。テイクアウト, デリバリーに対応。佐渡島にあります。",可,可,不可,不可,不可,不可,佐渡市内,CID URL検索,2025-08-09 12:39:38
ChIJfwz_wKtm818RZDXNrw59VqU,つぼ八 佐渡佐和田店,日本、〒952-1303 新潟県佐渡市上矢馳６４０,38.006418499999995,138.33531990000003,3.8,124,営業中,月曜日: 17時00分～23時00分; 火曜日: 17時00分～23時00分; 水曜日: 17時00分～23時00分; 木曜日: 17時00分～23時00分; 金曜日: 17時00分～23時00分; 土曜日: 17時00分～23時00分; 日曜日: 17時00分～23時00分,0259-51-0800,https://www.tsubohachi.co.jp/shop/other/sadosawada/,普通,"和食レストラン, レストラン, 観光スポット, 飲食店, 施設","和食レストランです。評価3.8（124件のレビュー）。価格帯は普通です。店内飲食, テイクアウトに対応。佐渡島にあります。",可,不可,可,不可,不可,可,佐渡市内,CID URL検索,2025-08-09 12:39:40
ChIJHQpVGhpk818R9eIq2lfLr1E,日本料理なかむら,日本、〒952-1325 新潟県佐渡市窪田１７−６,38.0060904,138.312516,4.3,19,営業中,,0259-52-6230,公式サイトなし,価格情報なし,"和食レストラン, レストラン, 飲食店, 観光スポット, 施設",和食レストランです。評価4.3（19件のレビュー）。店内飲食に対応。佐渡島にあります。,不可,不可,可,不可,不可,可,佐渡市内,CID URL検索,2025-08-09 12:39:41
ChIJL9kRVQBl818R_6BLjQr-UX0,されどおにぎり 佐和田店,日本、〒952-1324 新潟県佐渡市中原３４７−１,38.0054617,138.3187723,4.1,47,営業中,月曜日: 6時00分～18時00分; 火曜日: 6時00分～18時00分; 水曜日: 6時00分～18時00分; 木曜日: 6時00分～18時00分; 金曜日: 6時00分～18時00分; 土曜日: 6時00分～18時00分; 日曜日: 6時00分～18時00分,050-8881-3050,https://saredoonigiri.com/,価格情報なし,"レストラン, 飲食店, 観光スポット, 施設","レストランです。評価4.1（47件のレビュー）。店内飲食, テイクアウト, デリバリーに対応。佐渡島にあります。",可,可,可,可,不可,不可,佐渡市内,CID URL検索,2025-08-09 12:39:43
ChIJtb86GKpm818R6-3HrmlrxQI,池袋 大勝軒 佐渡店,日本、〒952-1307 新潟県佐渡市東大通８８７−２,38.0053626,138.33290150000002,3.3,142,営業中,"月曜日: 11時30分～14時30分, 17時30分～20時00分; 火曜日: 定休日; 水曜日: 11時30分～14時30分, 17時30分～20時00分; 木曜日: 11時30分～14時30分, 17時30分～20時00分; 金曜日: 11時30分～14時30分, 17時30分～20時00分; 土曜日: 11時30分～14時30分, 17時30分～20時00分; 日曜日: 11時30分～14時30分, 17時30分～20時00分",0259-52-5005,https://www.facebook.com/%E6%B1%A0%E8%A2%8B%E5%A4%A7%E5%8B%9D%E8%BB%92%E4%BD%90%E6%B8%A1%E5%BA%97-109578045143087/,普通,"ラーメン店, 和食レストラン, レストラン, 飲食店, 観光スポット, 施設",ラーメン店です。評価3.3（142件のレビュー）。価格帯は普通です。店内飲食に対応。佐渡島にあります。,不可,不可,可,不可,可,可,佐渡市内,CID URL検索,2025-08-09 12:39:44
